key,name,city,country,iata,icao,latitude,longitude,altitude,timezone,dst
GKA,Goroka Airport,Goroka,Papua New Guinea,GKA,AYGA,-6.081689834590001,145.391998291,5282,10,U
MAG,Madang Airport,Madang,Papua New Guinea,MAG,AYMD,-5.20707988739,145.789001465,20,10,U
HGU,Mount Hagen Kagamuga Airport,Mount Hagen,Papua New Guinea,HGU,AYMH,-5.826789855957031,144.29600524902344,5388,10,U
LAE,Nadzab Airport,Nadzab,Papua New Guinea,LAE,AYNZ,-6.569803,146.725977,239,10,U
POM,Port Moresby Jacksons International Airport,Port Moresby,Papua New Guinea,POM,AYPY,-9.443380355834961,147.22000122070312,146,10,U
WWK,Wewak International Airport,Wewak,Papua New Guinea,WWK,AYWK,-3.58383011818,143.669006348,19,10,U
UAK,Narsarsuaq Airport,Narssarssuaq,Greenland,UAK,BGBW,61.1604995728,-45.4259986877,112,-3,E
GOH,Godthaab / Nuuk Airport,Godthaab,Greenland,GOH,BGGH,64.19090271,-51.6781005859,283,-3,E
SFJ,Kangerlussuaq Airport,Sondrestrom,Greenland,SFJ,BGSF,67.0122218992,-50.7116031647,165,-3,E
THU,Thule Air Base,Thule,Greenland,THU,BGTL,76.5311965942,-68.7032012939,251,-4,E
AEY,Akureyri Airport,Akureyri,Iceland,AEY,BIAR,65.66000366210938,-18.07270050048828,6,0,N
EGS,Egilsstaðir Airport,Egilsstadir,Iceland,EGS,BIEG,65.2833023071289,-14.401399612426758,76,0,N
HFN,Hornafjörður Airport,Hofn,Iceland,HFN,BIHN,64.295601,-15.2272,24,0,N
HZK,Húsavík Airport,Husavik,Iceland,HZK,BIHU,65.952301,-17.426001,48,0,N
IFJ,Ísafjörður Airport,Isafjordur,Iceland,IFJ,BIIS,66.05809783935547,-23.135299682617188,8,0,N
KEF,Keflavik International Airport,Keflavik,Iceland,KEF,BIKF,63.985000610352,-22.605600357056,171,0,N
PFJ,Patreksfjörður Airport,Patreksfjordur,Iceland,PFJ,BIPA,65.555801,-23.965,11,0,N
RKV,Reykjavik Airport,Reykjavik,Iceland,RKV,BIRK,64.1299972534,-21.9405994415,48,0,N
SIJ,Siglufjörður Airport,Siglufjordur,Iceland,SIJ,BISI,66.133301,-18.9167,10,0,N
VEY,Vestmannaeyjar Airport,Vestmannaeyjar,Iceland,VEY,BIVM,63.42430114746094,-20.278900146484375,326,0,N
YAM,Sault Ste Marie Airport,Sault Sainte Marie,Canada,YAM,CYAM,46.48500061035156,-84.5093994140625,630,-5,A
YAV,Winnipeg / St. Andrews Airport,Winnipeg,Canada,YAV,CYAV,50.0564002991,-97.03250122070001,760,-6,A
YAW,Halifax / CFB Shearwater Heliport,Halifax,Canada,YAW,CYAW,44.6397018433,-63.499401092499994,144,-4,A
YAY,St. Anthony Airport,St. Anthony,Canada,YAY,CYAY,51.3918991089,-56.083099365200006,108,-3.5,A
YAZ,Tofino / Long Beach Airport,Tofino,Canada,YAZ,CYAZ,49.079833,-125.775583,80,-8,A
YBB,Kugaaruk Airport,Pelly Bay,Canada,YBB,CYBB,68.534401,-89.808098,56,-7,A
YBC,Baie Comeau Airport,Baie Comeau,Canada,YBC,CYBC,49.13249969482422,-68.20439910888672,71,-5,A
YBG,CFB Bagotville,Bagotville,Canada,YBG,CYBG,48.33060073852539,-70.99639892578125,522,-5,A
YBK,Baker Lake Airport,Baker Lake,Canada,YBK,CYBK,64.29889678960001,-96.077796936,59,-6,A
YBL,Campbell River Airport,Campbell River,Canada,YBL,CYBL,49.950801849365234,-125.27100372314453,346,-8,A
YBR,Brandon Municipal Airport,Brandon,Canada,YBR,CYBR,49.91,-99.951897,1343,-6,A
YCB,Cambridge Bay Airport,Cambridge Bay,Canada,YCB,CYCB,69.1081008911,-105.138000488,90,-7,A
YCD,Nanaimo Airport,Nanaimo,Canada,YCD,CYCD,49.054970224899996,-123.869862556,92,-8,A
YCG,Castlegar/West Kootenay Regional Airport,Castlegar,Canada,YCG,CYCG,49.2963981628,-117.632003784,1624,-8,A
YCH,Miramichi Airport,Chatham,Canada,YCH,CYCH,47.007801,-65.449203,108,-4,A
YCL,Charlo Airport,Charlo,Canada,YCL,CYCL,47.990799,-66.330299,132,-4,A
YCO,Kugluktuk Airport,Coppermine,Canada,YCO,CYCO,67.81670379639999,-115.143997192,74,-7,A
YCT,Coronation Airport,Coronation,Canada,YCT,CYCT,52.0750007629,-111.444999695,2595,-7,A
YCW,Chilliwack Airport,Chilliwack,Canada,YCW,CYCW,49.1528015137,-121.939002991,32,-8,A
YCY,Clyde River Airport,Clyde River,Canada,YCY,CYCY,70.4860992432,-68.5167007446,87,-5,A
YZS,Coral Harbour Airport,Coral Harbour,Canada,YZS,CYZS,64.1932983398,-83.3593978882,210,-5,A
YDA,Dawson City Airport,Dawson,Canada,YDA,CYDA,64.04309844970703,-139.1280059814453,1215,-8,A
YDB,Burwash Airport,Burwash,Canada,YDB,CYDB,61.37110137939453,-139.04100036621094,2647,-8,A
YDC,Princeton Airport,Princeton,Canada,YDC,CYDC,49.4681015015,-120.511001587,2298,-8,A
YDF,Deer Lake Airport,Deer Lake,Canada,YDF,CYDF,49.21080017089844,-57.39139938354492,72,-3.5,A
YDL,Dease Lake Airport,Dease Lake,Canada,YDL,CYDL,58.4221992493,-130.031997681,2600,-8,A
YDN,Dauphin Barker Airport,Dauphin,Canada,YDN,CYDN,51.100799560546875,-100.052001953125,999,-6,A
YDQ,Dawson Creek Airport,Dawson Creek,Canada,YDQ,CYDQ,55.7422981262207,-120.18299865722656,2148,-7,A
YEG,Edmonton International Airport,Edmonton,Canada,YEG,CYEG,53.309700012200004,-113.580001831,2373,-7,A
YEK,Arviat Airport,Eskimo Point,Canada,YEK,CYEK,61.0942001343,-94.07080078119999,32,-6,A
YEN,Estevan Airport,Estevan,Canada,YEN,CYEN,49.2103004456,-102.966003418,1905,-6,N
YET,Edson Airport,Edson,Canada,YET,CYET,53.578899383499994,-116.464996338,3043,-7,A
YEU,Eureka Airport,Eureka,Canada,YEU,CYEU,79.9946975708,-85.814201355,256,-6,A
YEV,Inuvik Mike Zubko Airport,Inuvik,Canada,YEV,CYEV,68.30419921880001,-133.483001709,224,-7,A
YFB,Iqaluit Airport,Iqaluit,Canada,YFB,CYFB,63.756401062,-68.5558013916,110,-5,A
YFC,Fredericton Airport,Fredericton,Canada,YFC,CYFC,45.868900299072266,-66.53720092773438,68,-4,A
,Shenyang Dongta Airport,Shenyang,China,,ZYYY,41.784400939941406,123.49600219726562,0,,
YFO,Flin Flon Airport,Flin Flon,Canada,YFO,CYFO,54.6781005859375,-101.68199920654297,997,-6,A
YFR,Fort Resolution Airport,Fort Resolution,Canada,YFR,CYFR,61.1808013916,-113.690002441,526,-7,A
YFS,Fort Simpson Airport,Fort Simpson,Canada,YFS,CYFS,61.76020050048828,-121.23699951171875,555,-7,A
YGK,Kingston Norman Rogers Airport,Kingston,Canada,YGK,CYGK,44.22529983520508,-76.5969009399414,305,-5,A
YGL,La Grande Rivière Airport,La Grande Riviere,Canada,YGL,CYGL,53.625301361083984,-77.7042007446289,639,-5,A
YGP,Gaspé (Michel-Pouliot) Airport,Gaspe,Canada,YGP,CYGP,48.7752990723,-64.4785995483,112,-5,A
YGQ,Geraldton Greenstone Regional Airport,Geraldton,Canada,YGQ,CYGQ,49.77830123901367,-86.93939971923828,1144,-5,A
YGR,Îles-de-la-Madeleine Airport,Iles De La Madeleine,Canada,YGR,CYGR,47.42470169067383,-61.778099060058594,35,-5,A
YHB,Hudson Bay Airport,Hudson Bay,Canada,YHB,CYHB,52.8166999817,-102.310997009,1175,-6,N
YHD,Dryden Regional Airport,Dryden,Canada,YHD,CYHD,49.83169937133789,-92.74420166015625,1354,-6,A
YHI,Ulukhaktok Holman Airport,Holman Island,Canada,YHI,CYHI,70.76280212402344,-117.80599975585938,117,-7,A
YHK,Gjoa Haven Airport,Gjoa Haven,Canada,YHK,CYHK,68.635597229,-95.84970092770001,152,-7,A
YHM,John C. Munro Hamilton International Airport,Hamilton,Canada,YHM,CYHM,43.173599243199995,-79.93499755859999,780,-5,A
YHU,Montréal / Saint-Hubert Airport,Montreal,Canada,YHU,CYHU,45.5175018311,-73.4169006348,90,-5,A
YHY,Hay River / Merlyn Carter Airport,Hay River,Canada,YHY,CYHY,60.8396987915,-115.782997131,541,-7,A
YHZ,Halifax / Stanfield International Airport,Halifax,Canada,YHZ,CYHZ,44.8807983398,-63.5085983276,477,-4,A
YIB,Atikokan Municipal Airport,Atikokan,Canada,YIB,CYIB,48.7738990784,-91.6386032104,1408,-5,A
YIO,Pond Inlet Airport,Pond Inlet,Canada,YIO,CYIO,72.6832962036,-77.9666976929,181,-5,A
YJN,St Jean Airport,St. Jean,Canada,YJN,CYJN,45.29439926147461,-73.28109741210938,136,-5,A
YJT,Stephenville Airport,Stephenville,Canada,YJT,CYJT,48.5442008972168,-58.54999923706055,84,-3.5,A
YKA,Kamloops Airport,Kamloops,Canada,YKA,CYKA,50.7022018433,-120.444000244,1133,-8,A
YKF,Waterloo Airport,Waterloo,Canada,YKF,CYKF,43.460800170899994,-80.3786010742,1055,-5,A
YKL,Schefferville Airport,Schefferville,Canada,YKL,CYKL,54.805301666259766,-66.8052978515625,1709,-5,A
YKY,Kindersley Airport,Kindersley,Canada,YKY,CYKY,51.5175018311,-109.180999756,2277,-6,N
YKZ,Buttonville Municipal Airport,Toronto,Canada,YKZ,CYKZ,43.86220169067383,-79.37000274658203,650,-5,A
YLD,Chapleau Airport,Chapleau,Canada,YLD,CYLD,47.81999969482422,-83.3467025756836,1470,-5,A
YLJ,Meadow Lake Airport,Meadow Lake,Canada,YLJ,CYLJ,54.125301361083984,-108.52300262451172,1576,-6,N
YLL,Lloydminster Airport,Lloydminster,Canada,YLL,CYLL,53.309200286865234,-110.072998046875,2193,-7,A
YLT,Alert Airport,Alert,Canada,YLT,CYLT,82.51779937740001,-62.2806015015,100,-5,A
YLW,Kelowna International Airport,Kelowna,Canada,YLW,CYLW,49.9561004639,-119.377998352,1421,-8,A
YMA,Mayo Airport,Mayo,Canada,YMA,CYMA,63.61640167236328,-135.8679962158203,1653,-8,A
YMJ,Moose Jaw Air Vice Marshal C. M. McEwen Airport,Moose Jaw,Canada,YMJ,CYMJ,50.330299377441406,-105.55899810791016,1892,-6,N
YMM,Fort McMurray Airport,Fort Mcmurray,Canada,YMM,CYMM,56.653301239,-111.222000122,1211,-7,A
YMO,Moosonee Airport,Moosonee,Canada,YMO,CYMO,51.291099548339844,-80.60780334472656,30,-5,A
YMW,Maniwaki Airport,Maniwaki,Canada,YMW,CYMW,46.2728004456,-75.9906005859,656,-5,A
YMX,Montreal International (Mirabel) Airport,Montreal,Canada,YMX,CYMX,45.6795005798,-74.0386962891,270,-5,A
YNA,Natashquan Airport,Natashquan,Canada,YNA,CYNA,50.189998626708984,-61.78919982910156,39,-5,A
YND,Ottawa / Gatineau Airport,Gatineau,Canada,YND,CYND,45.521701812699995,-75.5635986328,211,-5,A
YNM,Matagami Airport,Matagami,Canada,YNM,CYNM,49.76169967651367,-77.80280303955078,918,-5,A
YOC,Old Crow Airport,Old Crow,Canada,YOC,CYOC,67.57060241699219,-139.83900451660156,824,-8,A
YOD,CFB Cold Lake,Cold Lake,Canada,YOD,CYOD,54.404998779296875,-110.27899932861328,1775,-7,A
YOJ,High Level Airport,High Level,Canada,YOJ,CYOJ,58.62139892578125,-117.16500091552734,1110,-7,A
YOW,Ottawa Macdonald-Cartier International Airport,Ottawa,Canada,YOW,CYOW,45.3224983215332,-75.66919708251953,374,-5,A
YPA,Prince Albert Glass Field,Prince Albert,Canada,YPA,CYPA,53.214199066199996,-105.672996521,1405,-6,N
YPE,Peace River Airport,Peace River,Canada,YPE,CYPE,56.226898193359375,-117.4469985961914,1873,-7,A
YPG,Southport Airport,Portage-la-prairie,Canada,YPG,CYPG,49.903099,-98.273817,885,-6,A
YPL,Pickle Lake Airport,Pickle Lake,Canada,YPL,CYPL,51.4463996887207,-90.21420288085938,1267,-5,A
YPN,Port Menier Airport,Port Menier,Canada,YPN,CYPN,49.83639907836914,-64.2885971069336,167,-5,A
YPQ,Peterborough Airport,Peterborough,Canada,YPQ,CYPQ,44.22999954223633,-78.36329650878906,628,-5,A
YPR,Prince Rupert Airport,Prince Pupert,Canada,YPR,CYPR,54.286098480199996,-130.445007324,116,-8,A
YPY,Fort Chipewyan Airport,Fort Chipewyan,Canada,YPY,CYPY,58.7672004699707,-111.11699676513672,761,-7,A
YQA,Muskoka Airport,Muskoka,Canada,YQA,CYQA,44.974700927734375,-79.30329895019531,925,-5,A
YQB,Quebec Jean Lesage International Airport,Quebec,Canada,YQB,CYQB,46.7911,-71.393303,244,-5,A
YQF,Red Deer Regional Airport,Red Deer Industrial,Canada,YQF,CYQF,52.18220138549805,-113.89399719238281,2968,-7,A
YQG,Windsor Airport,Windsor,Canada,YQG,CYQG,42.27560043334961,-82.95559692382812,622,-5,A
YQH,Watson Lake Airport,Watson Lake,Canada,YQH,CYQH,60.11640167236328,-128.82200622558594,2255,-8,A
YQK,Kenora Airport,Kenora,Canada,YQK,CYQK,49.788299560546875,-94.36309814453125,1332,-6,A
YQL,Lethbridge County Airport,Lethbridge,Canada,YQL,CYQL,49.6302986145,-112.800003052,3048,-7,A
YQM,Greater Moncton International Airport,Moncton,Canada,YQM,CYQM,46.11220169067383,-64.67859649658203,232,-4,A
YQQ,Comox Airport,Comox,Canada,YQQ,CYQQ,49.71080017089844,-124.88700103759766,84,-8,A
YQR,Regina International Airport,Regina,Canada,YQR,CYQR,50.43190002441406,-104.66600036621094,1894,-6,N
YQT,Thunder Bay Airport,Thunder Bay,Canada,YQT,CYQT,48.37189865112305,-89.32389831542969,653,-5,A
YQU,Grande Prairie Airport,Grande Prairie,Canada,YQU,CYQU,55.1796989441,-118.885002136,2195,-7,A
YQV,Yorkton Municipal Airport,Yorkton,Canada,YQV,CYQV,51.26470184326172,-102.46199798583984,1635,-6,N
YQW,North Battleford Airport,North Battleford,Canada,YQW,CYQW,52.76919937133789,-108.24400329589844,1799,-6,N
YQX,Gander International Airport,Gander,Canada,YQX,CYQX,48.9369010925293,-54.56809997558594,496,-3.5,A
YQY,Sydney / J.A. Douglas McCurdy Airport,Sydney,Canada,YQY,CYQY,46.161399841299996,-60.0477981567,203,-4,A
YQZ,Quesnel Airport,Quesnel,Canada,YQZ,CYQZ,53.026100158691406,-122.51000213623047,1789,-8,A
YRB,Resolute Bay Airport,Resolute,Canada,YRB,CYRB,74.7169036865,-94.9693984985,215,-6,A
YRI,Rivière-du-Loup Airport,Riviere Du Loup,Canada,YRI,CYRI,47.764400482177734,-69.58470153808594,427,-5,A
YRJ,Roberval Airport,Roberval,Canada,YRJ,CYRJ,48.52000045776367,-72.2656021118164,586,-5,A
YRM,Rocky Mountain House Airport,Rocky Mountain House,Canada,YRM,CYRM,52.4296989441,-114.903999329,3244,-7,A
YRT,Rankin Inlet Airport,Rankin Inlet,Canada,YRT,CYRT,62.8114013672,-92.1157989502,94,-6,A
YSB,Sudbury Airport,Sudbury,Canada,YSB,CYSB,46.625,-80.79889678955078,1141,-5,A
YSC,Sherbrooke Airport,Sherbrooke,Canada,YSC,CYSC,45.4385986328125,-71.69139862060547,792,-5,A
YSJ,Saint John Airport,St. John,Canada,YSJ,CYSJ,45.31610107421875,-65.89029693603516,357,-4,A
YSM,Fort Smith Airport,Fort Smith,Canada,YSM,CYSM,60.020301818847656,-111.96199798583984,671,-7,A
YSR,Nanisivik Airport,Nanisivik,Canada,YSR,CYSR,72.982201,-84.613602,2106,-5,A
YSU,Summerside Airport,Summerside,Canada,YSU,CYSU,46.44060134887695,-63.83359909057617,56,-4,A
YSY,Sachs Harbour (David Nasogaluak Jr. Saaryuaq) Airport,Sachs Harbour,Canada,YSY,CYSY,71.9938964844,-125.242996216,282,-7,A
YTE,Cape Dorset Airport,Cape Dorset,Canada,YTE,CYTE,64.2300033569,-76.5267028809,164,-5,A
YTH,Thompson Airport,Thompson,Canada,YTH,CYTH,55.80110168457031,-97.86419677734375,729,-6,A
YTR,CFB Trenton,Trenton,Canada,YTR,CYTR,44.118900299072266,-77.5280990600586,283,-5,A
YTS,Timmins/Victor M. Power,Timmins,Canada,YTS,CYTS,48.569698333699996,-81.376701355,967,-5,A
YTZ,Billy Bishop Toronto City Centre Airport,Toronto,Canada,YTZ,CYTZ,43.627499,-79.396202,252,-5,A
YUB,Tuktoyaktuk Airport,Tuktoyaktuk,Canada,YUB,CYUB,69.43329620361328,-133.0260009765625,15,-7,A
YUL,Montreal / Pierre Elliott Trudeau International Airport,Montreal,Canada,YUL,CYUL,45.4706001282,-73.7407989502,118,-5,A
YUT,Repulse Bay Airport,Repulse Bay,Canada,YUT,CYUT,66.5214004517,-86.22470092770001,80,-6,A
YUX,Hall Beach Airport,Hall Beach,Canada,YUX,CYUX,68.77610015869999,-81.2425,30,-5,A
YUY,Rouyn Noranda Airport,Rouyn,Canada,YUY,CYUY,48.20610046386719,-78.83560180664062,988,-5,A
YVC,La Ronge Airport,La Ronge,Canada,YVC,CYVC,55.151401519800004,-105.262001038,1242,-6,N
YVG,Vermilion Airport,Vermillion,Canada,YVG,CYVG,53.355800628699996,-110.823997498,2025,-7,A
YVM,Qikiqtarjuaq Airport,Broughton Island,Canada,YVM,CYVM,67.5457992554,-64.03140258789999,21,-5,A
YVO,Val-d'Or Airport,Val D'or,Canada,YVO,CYVO,48.0532989502,-77.7827987671,1107,-5,A
YVP,Kuujjuaq Airport,Quujjuaq,Canada,YVP,CYVP,58.096099853515625,-68.4269027709961,129,-5,A
YVQ,Norman Wells Airport,Norman Wells,Canada,YVQ,CYVQ,65.28160095214844,-126.7979965209961,238,-7,A
YVR,Vancouver International Airport,Vancouver,Canada,YVR,CYVR,49.193901062,-123.183998108,14,-8,A
YVT,Buffalo Narrows Airport,Buffalo Narrows,Canada,YVT,CYVT,55.8418998718,-108.417999268,1423,-6,N
YVV,Wiarton Airport,Wiarton,Canada,YVV,CYVV,44.7458,-81.107201,729,-5,A
YWA,Petawawa Airport,Petawawa,Canada,YWA,CYWA,45.95220184326172,-77.31919860839844,427,-5,A
YWG,Winnipeg / James Armstrong Richardson International Airport,Winnipeg,Canada,YWG,CYWG,49.909999847399995,-97.2398986816,783,-6,A
YWK,Wabush Airport,Wabush,Canada,YWK,CYWK,52.92190170288086,-66.8644027709961,1808,-4,A
YWL,Williams Lake Airport,Williams Lake,Canada,YWL,CYWL,52.1831016541,-122.054000854,3085,-8,A
YWY,Wrigley Airport,Wrigley,Canada,YWY,CYWY,63.20940017700195,-123.43699645996094,489,-7,A
YXC,Cranbrook/Canadian Rockies International Airport,Cranbrook,Canada,YXC,CYXC,49.610801696777,-115.78199768066,3082,-7,A
YXD,Edmonton City Centre (Blatchford Field) Airport,Edmonton,Canada,YXD,CYXD,53.5724983215,-113.521003723,2202,-7,A
YXE,Saskatoon John G. Diefenbaker International Airport,Saskatoon,Canada,YXE,CYXE,52.170799255371094,-106.69999694824219,1653,-6,N
YXH,Medicine Hat Airport,Medicine Hat,Canada,YXH,CYXH,50.01890182495117,-110.72100067138672,2352,-7,A
YXJ,Fort St John Airport,Fort Saint John,Canada,YXJ,CYXJ,56.23809814453125,-120.73999786376953,2280,-7,A
YXL,Sioux Lookout Airport,Sioux Lookout,Canada,YXL,CYXL,50.11389923095703,-91.9052963256836,1258,-6,A
YXP,Pangnirtung Airport,Pangnirtung,Canada,YXP,CYXP,66.1449966431,-65.71360015869999,75,-5,A
YXR,Earlton (Timiskaming Regional) Airport,Earlton,Canada,YXR,CYXR,47.697400654599996,-79.8473453522,800,-5,A
YXS,Prince George Airport,Prince George,Canada,YXS,CYXS,53.8894004822,-122.679000854,2267,-8,A
YXT,Northwest Regional Airport Terrace-Kitimat,Terrace,Canada,YXT,CYXT,54.468498,-128.576009,713,-8,A
YXU,London Airport,London,Canada,YXU,CYXU,43.035599,-81.1539,912,-5,A
YXX,Abbotsford Airport,Abbotsford,Canada,YXX,CYXX,49.025299072265625,-122.36100006103516,195,-8,A
YXY,Whitehorse / Erik Nielsen International Airport,Whitehorse,Canada,YXY,CYXY,60.7095985413,-135.067001343,2317,-8,A
YYB,North Bay Airport,North Bay,Canada,YYB,CYYB,46.36360168457031,-79.42279815673828,1215,-5,A
YYC,Calgary International Airport,Calgary,Canada,YYC,CYYC,51.113899231,-114.019996643,3557,-7,A
YYD,Smithers Airport,Smithers,Canada,YYD,CYYD,54.82469940185547,-127.18299865722656,1712,-8,A
YYE,Fort Nelson Airport,Fort Nelson,Canada,YYE,CYYE,58.8363990784,-122.597000122,1253,-8,A
YYF,Penticton Airport,Penticton,Canada,YYF,CYYF,49.46310043334961,-119.60199737548828,1129,-8,A
YYG,Charlottetown Airport,Charlottetown,Canada,YYG,CYYG,46.290000915527344,-63.12110137939453,160,-4,A
YYH,Taloyoak Airport,Spence Bay,Canada,YYH,CYYH,69.5466995239,-93.5766983032,92,-7,A
YYJ,Victoria International Airport,Victoria,Canada,YYJ,CYYJ,48.646900177,-123.426002502,63,-8,A
YYL,Lynn Lake Airport,Lynn Lake,Canada,YYL,CYYL,56.86389923095703,-101.07599639892578,1170,-6,A
YYN,Swift Current Airport,Swift Current,Canada,YYN,CYYN,50.291900634799994,-107.691001892,2680,-6,N
YYQ,Churchill Airport,Churchill,Canada,YYQ,CYYQ,58.739200592041016,-94.06500244140625,94,-6,A
YYR,Goose Bay Airport,Goose Bay,Canada,YYR,CYYR,53.3191986084,-60.4258003235,160,-4,A
YYT,St. John's International Airport,St. John's,Canada,YYT,CYYT,47.618598938,-52.7518997192,461,-3.5,A
YYU,Kapuskasing Airport,Kapuskasing,Canada,YYU,CYYU,49.41389846801758,-82.46749877929688,743,-5,A
YYW,Armstrong Airport,Armstrong,Canada,YYW,CYYW,50.29029846191406,-88.90969848632812,1058,-5,A
YYY,Mont Joli Airport,Mont Joli,Canada,YYY,CYYY,48.60860061645508,-68.20809936523438,172,-5,A
YYZ,Lester B. Pearson International Airport,Toronto,Canada,YYZ,CYYZ,43.6772003174,-79.63059997559999,569,-5,A
YZD,Downsview Airport,Toronto,Canada,YZD,CYZD,43.74250030517578,-79.4655990600586,652,-5,A
YZE,Gore Bay Manitoulin Airport,Gore Bay,Canada,YZE,CYZE,45.88529968261719,-82.56780242919922,635,-5,A
YZF,Yellowknife Airport,Yellowknife,Canada,YZF,CYZF,62.462799072265625,-114.44000244140625,675,-7,A
YZH,Slave Lake Airport,Slave Lake,Canada,YZH,CYZH,55.2930984497,-114.777000427,1912,-7,A
YZP,Sandspit Airport,Sandspit,Canada,YZP,CYZP,53.25429916379999,-131.813995361,21,-8,A
YZR,Chris Hadfield Airport,Sarnia,Canada,YZR,CYZR,42.9994010925293,-82.30889892578125,594,-5,A
YZT,Port Hardy Airport,Port Hardy,Canada,YZT,CYZT,50.680599212646484,-127.36699676513672,71,-8,A
YZU,Whitecourt Airport,Whitecourt,Canada,YZU,CYZU,54.14390182495117,-115.78700256347656,2567,-7,A
YZV,Sept-Îles Airport,Sept-iles,Canada,YZV,CYZV,50.22330093383789,-66.2656021118164,180,-5,A
YZW,Teslin Airport,Teslin,Canada,YZW,CYZW,60.17279815673828,-132.7429962158203,2313,-8,A
YZX,CFB Greenwood,Greenwood,Canada,YZX,CYZX,44.98440170288086,-64.91690063476562,92,-4,A
ZFA,Faro Airport,Faro,Canada,ZFA,CZFA,62.20750045776367,-133.37600708007812,2351,-8,A
ZFM,Fort Mcpherson Airport,Fort Mcpherson,Canada,ZFM,CZFM,67.40750122070312,-134.86099243164062,116,-7,A
BJA,Soummam Airport,Bejaja,Algeria,BJA,DAAE,36.7120018005,5.0699200630200005,20,1,N
ALG,Houari Boumediene Airport,Algier,Algeria,ALG,DAAG,36.691001892089844,3.215409994125366,82,1,N
DJG,Djanet Inedbirene Airport,Djanet,Algeria,DJG,DAAJ,24.292800903299998,9.45244026184,3176,1,N
QFD,Boufarik Airport,Boufarik,Algeria,QFD,DAAK,36.545799,2.87611,335,1,N
VVZ,Illizi Takhamalt Airport,Illizi,Algeria,VVZ,DAAP,26.7234992981,8.62265014648,1778,1,N
TMR,Aguenar – Hadj Bey Akhamok Airport,Tamanrasset,Algeria,TMR,DAAT,22.8115005493,5.45107984543,4518,1,N
GJL,Jijel Ferhat Abbas Airport,Jijel,Algeria,GJL,DAAV,36.7951011658,5.87361001968,36,1,N
AAE,Annaba Airport,Annaba,Algeria,AAE,DABB,36.822200775146484,7.809169769287109,16,1,N
CZL,Mohamed Boudiaf International Airport,Constantine,Algeria,CZL,DABC,36.2760009765625,6.620389938354492,2265,1,N
TEE,Cheikh Larbi Tébessi Airport,Tebessa,Algeria,TEE,DABS,35.4315986633,8.12071990967,2661,1,N
HRM,Hassi R'Mel Airport,Tilrempt,Algeria,HRM,DAFH,32.93040084838867,3.311539888381958,2540,1,N
TID,Bou Chekif Airport,Tiaret,Algeria,TID,DAOB,35.3410987854,1.46315002441,3245,1,N
TIN,Tindouf Airport,Tindouf,Algeria,TIN,DAOF,27.7003993988,-8.167099952700001,1453,1,N
QAS,Ech Cheliff Airport,Ech-cheliff,Algeria,QAS,DAOI,36.2126998901,1.33176994324,463,1,N
TAF,Tafaraoui Airport,Oran,Algeria,TAF,DAOL,35.54240036010742,-0.5322780013084412,367,1,N
TLM,Zenata – Messali El Hadj Airport,Tlemcen,Algeria,TLM,DAON,35.0167007446,-1.45000004768,814,1,N
ORN,Es Senia Airport,Oran,Algeria,ORN,DAOO,35.6239013672,-0.6211829781529999,295,1,N
MUW,Ghriss Airport,Ghriss,Algeria,MUW,DAOV,35.207698822021484,0.14714199304580688,1686,1,N
AZR,Touat Cheikh Sidi Mohamed Belkebir Airport,Adrar,Algeria,AZR,DAUA,27.837600708007812,-0.18641400337219238,919,1,N
BSK,Biskra Airport,Biskra,Algeria,BSK,DAUB,34.793300628699996,5.73823022842,289,1,N
ELG,El Golea Airport,El Golea,Algeria,ELG,DAUE,30.571300506591797,2.8595900535583496,1306,1,N
GHA,Noumérat - Moufdi Zakaria Airport,Ghardaia,Algeria,GHA,DAUG,32.38410186767578,3.794110059738159,1512,1,N
HME,Oued Irara Airport,Hassi Messaoud,Algeria,HME,DAUH,31.673000335699996,6.140439987180001,463,1,N
INZ,In Salah Airport,In Salah,Algeria,INZ,DAUI,27.250999450699997,2.51202011108,896,1,N
TGR,Touggourt Sidi Madhi Airport,Touggourt,Algeria,TGR,DAUK,33.06779861450195,6.088669776916504,279,1,N
LOO,Laghouat Airport,Laghouat,Algeria,LOO,DAUL,33.764400482199996,2.92833995819,2510,1,N
TMX,Timimoun Airport,Timimoun,Algeria,TMX,DAUT,29.2371006012,0.276033014059,1027,1,N
OGX,Ain el Beida Airport,Ouargla,Algeria,OGX,DAUU,31.917200088500977,5.412779808044434,492,1,N
IAM,In Aménas Airport,Zarzaitine,Algeria,IAM,DAUZ,28.0515003204,9.64291000366,1847,1,N
COO,Cadjehoun Airport,Cotonou,Benin,COO,DBBB,6.357230186462402,2.384350061416626,19,1,N
OUA,Ouagadougou Airport,Ouagadougou,Burkina Faso,OUA,DFFD,12.35319995880127,-1.5124200582504272,1037,0,N
BOY,Bobo Dioulasso Airport,Bobo-dioulasso,Burkina Faso,BOY,DFOO,11.160099983215332,-4.33096981048584,1511,0,N
ACC,Kotoka International Airport,Accra,Ghana,ACC,DGAA,5.605189800262451,-0.16678600013256073,205,0,N
TML,Tamale Airport,Tamale,Ghana,TML,DGLE,9.55718994140625,-0.8632140159606934,553,0,N
NYI,Sunyani Airport,Sunyani,Ghana,NYI,DGSN,7.361830234527588,-2.3287599086761475,1014,0,N
TKD,Takoradi Airport,Takoradi,Ghana,TKD,DGTK,4.896059989929199,-1.7747600078582764,21,0,N
ABJ,Port Bouet Airport,Abidjan,Cote d'Ivoire,ABJ,DIAP,5.261390209197998,-3.9262900352478027,21,0,N
BYK,Bouaké Airport,Bouake,Cote d'Ivoire,BYK,DIBK,7.738800048828125,-5.073669910430908,1230,0,N
DJO,Daloa Airport,Daloa,Cote d'Ivoire,DJO,DIDL,6.792809963226318,-6.473189830780029,823,0,N
HGO,Korhogo Airport,Korhogo,Cote d'Ivoire,HGO,DIKO,9.38718032837,-5.55666017532,1214,0,N
MJC,Man Airport,Man,Cote d'Ivoire,MJC,DIMN,7.272069931030273,-7.58735990524292,1089,0,N
SPY,San Pedro Airport,San Pedro,Cote d'Ivoire,SPY,DISP,4.746719837188721,-6.660820007324219,26,0,N
ASK,Yamoussoukro Airport,Yamoussoukro,Cote d'Ivoire,ASK,DIYO,6.9031701088,-5.36558008194,699,0,N
ABV,Nnamdi Azikiwe International Airport,Abuja,Nigeria,ABV,DNAA,9.006790161132812,7.263169765472412,1123,1,N
AKR,Akure Airport,Akure,Nigeria,AKR,DNAK,7.246739864349365,5.3010101318359375,1100,1,N
BNI,Benin Airport,Benin,Nigeria,BNI,DNBE,6.316979885101318,5.5995001792907715,258,1,N
CBQ,Margaret Ekpo International Airport,Calabar,Nigeria,CBQ,DNCA,4.976019859313965,8.347200393676758,210,1,N
ENU,Akanu Ibiam International Airport,Enugu,Nigeria,ENU,DNEN,6.474269866943359,7.561960220336914,466,1,N
QUS,Gusau Airport,Gusau,Nigeria,QUS,DNGU,12.171699523925781,6.696109771728516,1520,1,N
IBA,Ibadan Airport,Ibadan,Nigeria,IBA,DNIB,7.362460136413574,3.97832989692688,725,1,N
ILR,Ilorin International Airport,Ilorin,Nigeria,ILR,DNIL,8.440210342407227,4.493919849395752,1126,1,N
JOS,Yakubu Gowon Airport,Jos,Nigeria,JOS,DNJO,9.639829635620117,8.869050025939941,4232,1,N
KAD,Kaduna Airport,Kaduna,Nigeria,KAD,DNKA,10.696000099182129,7.320109844207764,2073,1,N
KAN,Mallam Aminu International Airport,Kano,Nigeria,KAN,DNKN,12.047599792480469,8.524620056152344,1562,1,N
MIU,Maiduguri International Airport,Maiduguri,Nigeria,MIU,DNMA,11.855299949645996,13.080900192260742,1099,1,N
MDI,Makurdi Airport,Makurdi,Nigeria,MDI,DNMK,7.7038798332214355,8.613940238952637,371,1,N
LOS,Murtala Muhammed International Airport,Lagos,Nigeria,LOS,DNMM,6.5773701667785645,3.321160078048706,135,1,N
MXJ,Minna Airport,Minna,Nigeria,MXJ,DNMN,9.652170181274414,6.462259769439697,834,1,N
PHC,Port Harcourt International Airport,Port Hartcourt,Nigeria,PHC,DNPO,5.0154900550842285,6.94959020614624,87,1,N
SKO,Sadiq Abubakar III International Airport,Sokoto,Nigeria,SKO,DNSO,12.916299819946289,5.207190036773682,1010,1,N
YOL,Yola Airport,Yola,Nigeria,YOL,DNYO,9.257550239562988,12.430399894714355,599,1,N
ZAR,Zaria Airport,Zaria,Nigeria,ZAR,DNZA,11.130200386047363,7.685810089111328,2170,1,N
MFQ,Maradi Airport,Maradi,Niger,MFQ,DRRM,13.5024995803833,7.1267499923706055,1240,1,N
NIM,Diori Hamani International Airport,Niamey,Niger,NIM,DRRN,13.481499671936035,2.183609962463379,732,1,N
THZ,Tahoua Airport,Tahoua,Niger,THZ,DRRT,14.875699996948242,5.265359878540039,1266,1,N
AJY,Mano Dayak International Airport,Agadez,Niger,AJY,DRZA,16.965999603271484,8.000109672546387,1657,1,N
ZND,Zinder Airport,Zinder,Niger,ZND,DRZR,13.779000282287598,8.983759880065918,1516,1,N
MIR,Monastir Habib Bourguiba International Airport,Monastir,Tunisia,MIR,DTMB,35.75809860229492,10.75469970703125,9,1,E
TUN,Tunis Carthage International Airport,Tunis,Tunisia,TUN,DTTA,36.85100173950195,10.22719955444336,22,1,E
GAF,Gafsa Ksar International Airport,Gafsa,Tunisia,GAF,DTTF,34.422000885009766,8.822500228881836,1060,1,E
GAE,Gabès Matmata International Airport,Gabes,Tunisia,GAE,DTTG,33.87689971923828,10.103300094604492,26,1,E
DJE,Djerba Zarzis International Airport,Djerba,Tunisia,DJE,DTTJ,33.875,10.775500297546387,19,1,E
EBM,El Borma Airport,El Borma,Tunisia,EBM,DTTR,31.704299926757812,9.254619598388672,827,1,E
SFA,Sfax Thyna International Airport,Sfax,Tunisia,SFA,DTTX,34.71799850463867,10.690999984741211,85,1,E
TOE,Tozeur Nefta International Airport,Tozeur,Tunisia,TOE,DTTZ,33.939701080322266,8.110560417175293,287,1,E
LRL,Niamtougou International Airport,Niatougou,Togo,LRL,DXNG,9.767330169677734,1.091249942779541,1515,0,N
LFW,Lomé-Tokoin Airport,Lome,Togo,LFW,DXXX,6.165609836578369,1.2545100450515747,72,0,N
ANR,Antwerp International Airport (Deurne),Antwerp,Belgium,ANR,EBAW,51.1893997192,4.46027994156,39,1,E
BRU,Brussels Airport,Brussels,Belgium,BRU,EBBR,50.901401519800004,4.48443984985,184,1,E
CRL,Brussels South Charleroi Airport,Charleroi,Belgium,CRL,EBCI,50.459201812699995,4.45382022858,614,1,E
QKT,Wevelgem Airport,Kortrijk-vevelgem,Belgium,QKT,EBKT,50.817199707,3.20472002029,64,1,E
LGG,Liège Airport,Liege,Belgium,LGG,EBLG,50.63740158081055,5.443220138549805,659,1,E
OST,Ostend-Bruges International Airport,Ostend,Belgium,OST,EBOS,51.198898315399994,2.8622200489,13,1,E
AOC,Altenburg-Nobitz Airport,Altenburg,Germany,AOC,EDAC,50.9819450378418,12.506388664245605,640,1,E
BBH,Barth Airport,Barth,Germany,BBH,EDBH,54.338253,12.710515,23,1,E
SXF,Berlin-Schönefeld International Airport,Berlin,Germany,SXF,EDDB,52.380001068115,13.522500038147,157,1,E
DRS,Dresden Airport,Dresden,Germany,DRS,EDDC,51.1328010559082,13.767200469970703,755,1,E
ERF,Erfurt Airport,Erfurt,Germany,ERF,EDDE,50.979801177978516,10.958100318908691,1036,1,E
FRA,Frankfurt am Main International Airport,Frankfurt,Germany,FRA,EDDF,50.0333333,8.5705556,364,1,E
FMO,Münster Osnabrück Airport,Munster,Germany,FMO,EDDG,52.134601593,7.68483018875,160,1,E
HAM,Hamburg Airport,Hamburg,Germany,HAM,EDDH,53.630401611328,9.9882297515869,53,1,E
THF,Berlin-Tempelhof International Airport,Berlin,Germany,THF,EDDI,52.472999572753906,13.403900146484375,167,1,E
CGN,Cologne Bonn Airport,Cologne,Germany,CGN,EDDK,50.8658981323,7.1427397728,302,1,E
DUS,Düsseldorf International Airport,Duesseldorf,Germany,DUS,EDDL,51.28950119018555,6.766779899597168,147,1,E
MUC,Munich International Airport,Munich,Germany,MUC,EDDM,48.353801727295,11.786100387573,1487,1,E
NUE,Nuremberg Airport,Nuernberg,Germany,NUE,EDDN,49.498699,11.0780556,1046,1,E
LEJ,Leipzig Halle Airport,Leipzig,Germany,LEJ,EDDP,51.4238889,12.2363889,465,1,E
SCN,Saarbrücken Airport,Saarbruecken,Germany,SCN,EDDR,49.214599609400004,7.10950994492,1058,1,E
STR,Stuttgart Airport,Stuttgart,Germany,STR,EDDS,48.689899444599995,9.22196006775,1276,1,E
TXL,Berlin-Tegel International Airport,Berlin,Germany,TXL,EDDT,52.5597000122,13.2876996994,122,1,E
HAJ,Hannover Airport,Hannover,Germany,HAJ,EDDV,52.461101532,9.685079574580001,183,1,E
BRE,Bremen Airport,Bremen,Germany,BRE,EDDW,53.0475006104,8.78666973114,14,1,E
QEF,Frankfurt-Egelsbach Airport,Egelsbach,Germany,QEF,EDFE,49.959999084472656,8.645833015441895,384,1,E
HHN,Frankfurt-Hahn Airport,Hahn,Germany,HHN,EDFH,49.948699951200005,7.263889789579999,1649,1,E
MHG,Mannheim-City Airport,Mannheim,Germany,MHG,EDFM,49.47305679321289,8.514166831970215,308,1,E
XFW,Hamburg-Finkenwerder Airport,Hamburg,Germany,XFW,EDHI,53.5352783203125,9.835556030273438,23,1,E
KEL,Kiel-Holtenau Airport,Kiel,Germany,KEL,EDHK,54.37944412231445,10.145277976989746,102,1,E
LBC,Lübeck Blankensee Airport,Luebeck,Germany,LBC,EDHL,53.8054008484,10.7192001343,53,1,E
ZCA,Arnsberg-Menden Airport,Arnsberg,Germany,ZCA,EDLA,51.483890533447266,7.8983330726623535,794,1,E
ESS,Essen Mulheim Airport,Essen,Germany,ESS,EDLE,51.40230178833008,6.9373297691345215,424,1,E
MGL,Mönchengladbach Airport,Moenchengladbach,Germany,MGL,EDLN,51.23027801513672,6.504444122314453,125,1,E
PAD,Paderborn Lippstadt Airport,Paderborn,Germany,PAD,EDLP,51.614101409899995,8.616319656369999,699,1,E
DTM,Dortmund Airport,Dortmund,Germany,DTM,EDLW,51.51829910279999,7.61223983765,425,1,E
AGB,Augsburg Airport,Augsburg,Germany,AGB,EDMA,48.425278,10.931667,1516,1,E
OBF,Oberpfaffenhofen Airport,Oberpfaffenhofen,Germany,OBF,EDMO,48.08140182495117,11.283100128173828,1947,1,E
RBM,Straubing Airport,Straubing,Germany,RBM,EDMS,48.90083312988281,12.516667366027832,1047,1,E
FDH,Friedrichshafen Airport,Friedrichshafen,Germany,FDH,EDNY,47.671298980699994,9.51148986816,1367,1,E
SZW,Schwerin Parchim Airport,Parchim,Germany,SZW,EDOP,53.426998,11.7834,166,1,E
ZSN,Stendal-Borstel Airport,Stendal,Germany,ZSN,EDOV,52.62888717651367,11.818611145019531,184,1,E
BYU,Bayreuth Airport,Bayreuth,Germany,BYU,EDQD,49.98500061035156,11.640000343322754,1601,1,E
HOQ,Hof-Plauen Airport,Hof,Germany,HOQ,EDQM,50.288612365722656,11.856389045715332,1959,1,E
ZNV,Koblenz-Winningen Airport,Koblenz,Germany,ZNV,EDRK,50.325557708740234,7.528611183166504,640,1,E
ZQF,Trier-Föhren Airport,Trier,Germany,ZQF,EDRT,49.863887786865234,6.787499904632568,666,1,E
ZQC,Speyer Airport,Speyer,Germany,ZQC,EDRY,49.30472183227539,8.45138931274414,312,1,E
ZQW,Zweibrücken Airport,Zweibruecken,Germany,ZQW,EDRZ,49.20940017700195,7.400559902191162,1132,1,E
ZQL,Donaueschingen-Villingen Airport,Donaueschingen,Germany,ZQL,EDTD,47.97333145139999,8.52222156525,2231,1,E
BWE,Braunschweig Wolfsburg Airport,Braunschweig,Germany,BWE,EDVE,52.319199,10.5561,295,1,E
KSF,Kassel-Calden Airport,Kassel,Germany,KSF,EDVK,51.417273,9.384967,820,1,E
BRV,Bremerhaven Airport,Bremerhaven,Germany,BRV,EDWB,53.506943,8.572778,10,1,E
EME,Emden Airport,Emden,Germany,EME,EDWE,53.391109466552734,7.227499961853027,3,1,E
WVN,Wilhelmshaven-Mariensiel Airport,Wilhelmshaven,Germany,WVN,EDWI,53.502220153808594,8.05222225189209,16,1,E
BMK,Borkum Airport,Borkum,Germany,BMK,EDWR,53.5963897705,6.70916700363,3,1,E
NRD,Norderney Airport,Norderney,Germany,NRD,EDWY,53.70694351196289,7.230000019073486,7,1,E
FLF,Flensburg-Schäferhaus Airport,Flensburg,Germany,FLF,EDXF,54.77333450317383,9.378889083862305,131,1,E
GWT,Westerland Sylt Airport,Westerland,Germany,GWT,EDXW,54.9132003784,8.34047031403,51,1,E
KDL,Kärdla Airport,Kardla,Estonia,KDL,EEKA,58.99079895019531,22.830699920654297,18,2,E
URE,Kuressaare Airport,Kuressaare,Estonia,URE,EEKE,58.22990036010742,22.50950050354004,14,2,E
EPU,Pärnu Airport,Parnu,Estonia,EPU,EEPU,58.41899871826172,24.47279930114746,47,2,E
TLL,Lennart Meri Tallinn Airport,Tallinn-ulemiste International,Estonia,TLL,EETN,59.41329956049999,24.832799911499997,131,2,E
TAY,Tartu Airport,Tartu,Estonia,TAY,EETU,58.3074989319,26.690399169900004,219,2,E
ENF,Enontekio Airport,Enontekio,Finland,ENF,EFET,68.362602233887,23.424299240112,1005,2,E
KEV,Halli Airport,Halli,Finland,KEV,EFHA,61.856039,24.786686,479,2,E
HEM,Helsinki Malmi Airport,Helsinki,Finland,HEM,EFHF,60.254600524902344,25.042800903320312,57,2,E
HEL,Helsinki Vantaa Airport,Helsinki,Finland,HEL,EFHK,60.317199707031,24.963300704956,179,2,E
HYV,Hyvinkää Airfield,Hyvinkaa,Finland,HYV,EFHV,60.6543998718,24.8810997009,430,2,E
IVL,Ivalo Airport,Ivalo,Finland,IVL,EFIV,68.607299804688,27.405300140381,481,2,E
JOE,Joensuu Airport,Joensuu,Finland,JOE,EFJO,62.662899017334,29.607500076294,398,2,E
JYV,Jyvaskyla Airport,Jyvaskyla,Finland,JYV,EFJY,62.399501800537,25.678300857544,459,2,E
KAU,Kauhava Airport,Kauhava,Finland,KAU,EFKA,63.127102,23.051399,151,2,E
KEM,Kemi-Tornio Airport,Kemi,Finland,KEM,EFKE,65.778701782227,24.582099914551,61,2,E
KAJ,Kajaani Airport,Kajaani,Finland,KAJ,EFKI,64.285499572754,27.692399978638,483,2,E
KOK,Kokkola-Pietarsaari Airport,Kruunupyy,Finland,KOK,EFKK,63.721199035645,23.143100738525,84,2,E
KAO,Kuusamo Airport,Kuusamo,Finland,KAO,EFKS,65.987602233887,29.239400863647,866,2,E
KTT,Kittilä Airport,Kittila,Finland,KTT,EFKT,67.700996398926,24.846799850464,644,2,E
KUO,Kuopio Airport,Kuopio,Finland,KUO,EFKU,63.007099151611,27.797800064087,323,2,E
LPP,Lappeenranta Airport,Lappeenranta,Finland,LPP,EFLP,61.044601,28.144743,349,2,E
MHQ,Mariehamn Airport,Mariehamn,Finland,MHQ,EFMA,60.122200012207,19.898199081421,17,2,E
MIK,Mikkeli Airport,Mikkeli,Finland,MIK,EFMI,61.6866,27.201799,329,2,E
OUL,Oulu Airport,Oulu,Finland,OUL,EFOU,64.930099487305,25.354600906372,47,2,E
POR,Pori Airport,Pori,Finland,POR,EFPO,61.461700439453,21.799999237061,44,2,E
RVN,Rovaniemi Airport,Rovaniemi,Finland,RVN,EFRO,66.564796447754,25.830400466919,642,2,E
SVL,Savonlinna Airport,Savonlinna,Finland,SVL,EFSA,61.943099975586,28.945100784302,311,2,E
SOT,Sodankyla Airport,Sodankyla,Finland,SOT,EFSO,67.3949966431,26.6191005707,602,2,E
TMP,Tampere-Pirkkala Airport,Tampere,Finland,TMP,EFTP,61.414100646973,23.604400634766,390,2,E
TKU,Turku Airport,Turku,Finland,TKU,EFTU,60.514099121094,22.262800216675,161,2,E
QVY,Utti Air Base,Utti,Finland,QVY,EFUT,60.89640045166,26.938400268555,339,2,E
VAA,Vaasa Airport,Vaasa,Finland,VAA,EFVA,63.050701141357,21.762199401855,19,2,E
VRK,Varkaus Airport,Varkaus,Finland,VRK,EFVR,62.171100616455,27.868600845337,286,2,E
BFS,Belfast International Airport,Belfast,United Kingdom,BFS,EGAA,54.6575012207,-6.2158298492399995,268,0,E
ENK,St Angelo Airport,Enniskillen,United Kingdom,ENK,EGAB,54.39889907836914,-7.651669979095459,155,0,E
BHD,George Best Belfast City Airport,Belfast,United Kingdom,BHD,EGAC,54.618099212646484,-5.872499942779541,15,0,E
LDY,City of Derry Airport,Londonderry,United Kingdom,LDY,EGAE,55.04280090332031,-7.161109924316406,22,0,E
BHX,Birmingham International Airport,Birmingham,United Kingdom,BHX,EGBB,52.453899383499994,-1.74802994728,327,0,E
CVT,Coventry Airport,Coventry,United Kingdom,CVT,EGBE,52.3697013855,-1.4797199964499999,267,0,E
GLO,Gloucestershire Airport,Golouchestershire,United Kingdom,GLO,EGBJ,51.89419937133789,-2.167220115661621,101,0,E
MAN,Manchester Airport,Manchester,United Kingdom,MAN,EGCC,53.35369873046875,-2.2749500274658203,257,0,E
NQY,Newquay Cornwall Airport,Newquai,United Kingdom,NQY,EGHQ,50.44060134887695,-4.995409965515137,390,0,E
LYE,RAF Lyneham,Lyneham,United Kingdom,LYE,EGDL,51.5051,-1.99343,513,0,E
YEO,RNAS Yeovilton,Yeovilton,United Kingdom,YEO,EGDY,51.0093994140625,-2.638819932937622,75,0,E
CWL,Cardiff International Airport,Cardiff,United Kingdom,CWL,EGFF,51.39670181274414,-3.343329906463623,220,0,E
SWS,Swansea Airport,Swansea,United Kingdom,SWS,EGFH,51.60530090332031,-4.0678300857543945,299,0,E
BRS,Bristol Airport,Bristol,United Kingdom,BRS,EGGD,51.382702,-2.71909,622,0,E
LPL,Liverpool John Lennon Airport,Liverpool,United Kingdom,LPL,EGGP,53.33359909057617,-2.849720001220703,80,0,E
LTN,London Luton Airport,London,United Kingdom,LTN,EGGW,51.874698638916016,-0.36833301186561584,526,0,E
PLH,Plymouth City Airport,Plymouth,United Kingdom,PLH,EGHD,50.422798,-4.10583,476,0,E
BOH,Bournemouth Airport,Bournemouth,United Kingdom,BOH,EGHH,50.779998779296875,-1.8424999713897705,38,0,E
SOU,Southampton Airport,Southampton,United Kingdom,SOU,EGHI,50.95029830932617,-1.3567999601364136,44,0,E
QLA,Lasham Airport,Lasham,United Kingdom,QLA,EGHL,51.187198638916016,-1.0334999561309814,618,0,E
ACI,Alderney Airport,Alderney,Guernsey,ACI,EGJA,49.70610046386719,-2.2147200107574463,290,0,E
GCI,Guernsey Airport,Guernsey,Guernsey,GCI,EGJB,49.435001373291016,-2.6019699573516846,336,0,E
JER,Jersey Airport,Jersey,Jersey,JER,EGJJ,49.20790100097656,-2.195509910583496,277,0,E
ESH,Shoreham Airport,Shoreham By Sea,United Kingdom,ESH,EGKA,50.835601806640625,-0.29722198843955994,7,0,E
BQH,London Biggin Hill Airport,Biggin Hill,United Kingdom,BQH,EGKB,51.33079910279999,0.0324999988079,598,0,E
LGW,London Gatwick Airport,London,United Kingdom,LGW,EGKK,51.148101806640625,-0.19027799367904663,202,0,E
LCY,London City Airport,London,United Kingdom,LCY,EGLC,51.505299,0.055278,19,0,E
FAB,Farnborough Airport,Farnborough,United Kingdom,FAB,EGLF,51.2757987976,-0.776332974434,238,0,E
BBS,Blackbushe Airport,Blackbushe,United Kingdom,BBS,EGLK,51.32389831542969,-0.8475000262260437,325,0,E
LHR,London Heathrow Airport,London,United Kingdom,LHR,EGLL,51.4706,-0.461941,83,0,E
SEN,Southend Airport,Southend,United Kingdom,SEN,EGMC,51.5713996887207,0.6955559849739075,49,0,E
LYX,Lydd Airport,Lydd,United Kingdom,LYX,EGMD,50.95610046386719,0.9391670227050781,13,0,E
MSE,Kent International Airport,Manston,United Kingdom,MSE,EGMH,51.342201,1.34611,178,0,E
CAX,Carlisle Airport,Carlisle,United Kingdom,CAX,EGNC,54.9375,-2.8091700077056885,190,0,E
BLK,Blackpool International Airport,Blackpool,United Kingdom,BLK,EGNH,53.77170181274414,-3.0286099910736084,34,0,E
HUY,Humberside Airport,Humberside,United Kingdom,HUY,EGNJ,53.57440185546875,-0.350832998752594,121,0,E
BWF,Barrow Walney Island Airport,Barrow Island,United Kingdom,BWF,EGNL,54.1286111,-3.2675,173,0,E
LBA,Leeds Bradford Airport,Leeds,United Kingdom,LBA,EGNM,53.86589813232422,-1.6605700254440308,681,0,E
CEG,Hawarden Airport,Hawarden,United Kingdom,CEG,EGNR,53.1781005859375,-2.9777801036834717,45,0,E
IOM,Isle of Man Airport,Isle Of Man,Isle of Man,IOM,EGNS,54.08330154418945,-4.623889923095703,52,0,E
NCL,Newcastle Airport,Newcastle,United Kingdom,NCL,EGNT,55.037498474121094,-1.6916699409484863,266,0,E
MME,Durham Tees Valley Airport,Teesside,United Kingdom,MME,EGNV,54.50920104980469,-1.4294099807739258,120,0,E
EMA,East Midlands Airport,East Midlands,United Kingdom,EMA,EGNX,52.8311004639,-1.32806003094,306,0,E
KOI,Kirkwall Airport,Kirkwall,United Kingdom,KOI,EGPA,58.957801818847656,-2.9049999713897705,50,0,E
LSI,Sumburgh Airport,Sumburgh,United Kingdom,LSI,EGPB,59.87889862060547,-1.2955600023269653,20,0,E
WIC,Wick Airport,Wick,United Kingdom,WIC,EGPC,58.458900451660156,-3.09306001663208,126,0,E
ABZ,Aberdeen Dyce Airport,Aberdeen,United Kingdom,ABZ,EGPD,57.201900482177734,-2.197779893875122,215,0,E
INV,Inverness Airport,Inverness,United Kingdom,INV,EGPE,57.54249954223633,-4.047500133514404,31,0,E
GLA,Glasgow International Airport,Glasgow,United Kingdom,GLA,EGPF,55.8718986511,-4.43306016922,26,0,E
EDI,Edinburgh Airport,Edinburgh,United Kingdom,EDI,EGPH,55.95000076293945,-3.372499942779541,135,0,E
ILY,Islay Airport,Islay,United Kingdom,ILY,EGPI,55.68190002441406,-6.256669998168945,56,0,E
PIK,Glasgow Prestwick Airport,Prestwick,United Kingdom,PIK,EGPK,55.5093994140625,-4.586669921875,65,0,E
BEB,Benbecula Airport,Benbecula,United Kingdom,BEB,EGPL,57.48109817504883,-7.3627800941467285,19,0,E
SCS,Scatsta Airport,Scatsta,United Kingdom,SCS,EGPM,60.43280029296875,-1.2961100339889526,81,0,E
DND,Dundee Airport,Dundee,United Kingdom,DND,EGPN,56.45249938964844,-3.025830030441284,17,0,E
SYY,Stornoway Airport,Stornoway,United Kingdom,SYY,EGPO,58.215599060058594,-6.331110000610352,26,0,E
TRE,Tiree Airport,Tiree,United Kingdom,TRE,EGPU,56.49919891357422,-6.869170188903809,38,0,E
ADX,RAF Leuchars,Leuchars,United Kingdom,ADX,EGQL,56.37289810180664,-2.8684399127960205,38,0,E
LMO,RAF Lossiemouth,Lossiemouth,United Kingdom,LMO,EGQS,57.7052001953125,-3.339169979095459,42,0,E
CBG,Cambridge Airport,Cambridge,United Kingdom,CBG,EGSC,52.2050018311,0.17499999702,47,0,E
NWI,Norwich International Airport,Norwich,United Kingdom,NWI,EGSH,52.6758003235,1.28278005123,117,0,E
STN,London Stansted Airport,London,United Kingdom,STN,EGSS,51.8849983215,0.234999999404,348,0,E
EXT,Exeter International Airport,Exeter,United Kingdom,EXT,EGTE,50.73440170288086,-3.4138898849487305,102,0,E
FZO,Bristol Filton Airport,Bristol,United Kingdom,FZO,EGTG,51.5194015503,-2.59083008766,226,0,E
OXF,Oxford (Kidlington) Airport,Oxford,United Kingdom,OXF,EGTK,51.8368988037,-1.32000005245,270,0,E
MHZ,RAF Mildenhall,Mildenhall,United Kingdom,MHZ,EGUN,52.361900329589844,0.48640599846839905,33,0,E
FFD,RAF Fairford,Fairford,United Kingdom,FFD,EGVA,51.6822013855,-1.7900300025900002,286,0,E
BZZ,RAF Brize Norton,Brize Norton,United Kingdom,BZZ,EGVN,51.75,-1.58362,288,0,E
ODH,RAF Odiham,Odiham,United Kingdom,ODH,EGVO,51.2341003418,-0.94282501936,405,0,E
NHT,RAF Northolt,Northolt,United Kingdom,NHT,EGWU,51.553001403799996,-0.418166995049,124,0,E
QCY,RAF Coningsby,Coningsby,United Kingdom,QCY,EGXC,53.0929985046,-0.166014000773,25,0,E
BEQ,RAF Honington,Honington,United Kingdom,BEQ,EGXH,52.34260177612305,0.7729390263557434,174,0,E
HRT,RAF Linton-On-Ouse,Linton-on-ouse,United Kingdom,HRT,EGXU,54.0489006042,-1.2527500391,53,0,E
WTN,RAF Waddington,Waddington,United Kingdom,WTN,EGXW,53.1661987305,-0.523810982704,231,0,E
KNF,RAF Marham,Marham,United Kingdom,KNF,EGYM,52.648395,0.550692,75,0,E
MPN,Mount Pleasant Airport,Mount Pleasant,Falkland Islands,MPN,EGYP,-51.82279968261719,-58.447200775146484,244,-3,U
AMS,Amsterdam Airport Schiphol,Amsterdam,Netherlands,AMS,EHAM,52.3086013794,4.763889789579999,-11,1,E
MST,Maastricht Aachen Airport,Maastricht,Netherlands,MST,EHBK,50.9117012024,5.77014017105,375,1,E
EIN,Eindhoven Airport,Eindhoven,Netherlands,EIN,EHEH,51.4500999451,5.37452983856,74,1,E
GRQ,Eelde Airport,Groningen,Netherlands,GRQ,EHGG,53.1197013855,6.57944011688,17,1,E
DHR,De Kooy Airport,De Kooy,Netherlands,DHR,EHKD,52.92340087890625,4.780620098114014,3,1,E
LEY,Lelystad Airport,Lelystad,Netherlands,LEY,EHLE,52.46030044555664,5.527219772338867,-13,1,E
LWR,Leeuwarden Air Base,Leeuwarden,Netherlands,LWR,EHLW,53.228599548339844,5.760560035705566,3,1,E
RTM,Rotterdam The Hague Airport,Rotterdam,Netherlands,RTM,EHRD,51.956902,4.43722,-15,1,E
UTC,Soesterberg Air Base,Soesterberg,Netherlands,UTC,EHSB,52.1273002625,5.27618980408,66,1,E
ENS,Twente Airfield,Enschede,Netherlands,ENS,EHTW,52.2758333,6.8891667,114,1,E
LID,Valkenburg Naval Air Base,Valkenburg,Netherlands,LID,EHVB,52.166099548300004,4.41794013977,1,1,E
WOE,Woensdrecht Air Base,Woensdrecht,Netherlands,WOE,EHWO,51.4491,4.34203,63,1,E
ORK,Cork Airport,Cork,Ireland,ORK,EICK,51.84130096435547,-8.491109848022461,502,0,E
GWY,Galway Airport,Galway,Ireland,GWY,EICM,53.300201416015625,-8.941590309143066,81,0,E
DUB,Dublin Airport,Dublin,Ireland,DUB,EIDW,53.42129898071289,-6.2700700759887695,242,0,E
NOC,Ireland West Knock Airport,Connaught,Ireland,NOC,EIKN,53.910301208496094,-8.818490028381348,665,0,E
KIR,Kerry Airport,Kerry,Ireland,KIR,EIKY,52.18090057373047,-9.52377986907959,112,0,E
SNN,Shannon Airport,Shannon,Ireland,SNN,EINN,52.701999664307,-8.9248199462891,46,0,E
SXL,Sligo Airport,Sligo,Ireland,SXL,EISG,54.280200958252,-8.5992097854614,11,0,E
WAT,Waterford Airport,Waterford,Ireland,WAT,EIWF,52.187198638916016,-7.0869598388671875,119,0,E
AAR,Aarhus Airport,Aarhus,Denmark,AAR,EKAH,56.2999992371,10.619000434899998,82,1,E
BLL,Billund Airport,Billund,Denmark,BLL,EKBI,55.7402992249,9.15178012848,247,1,E
CPH,Copenhagen Kastrup Airport,Copenhagen,Denmark,CPH,EKCH,55.617900848389,12.656000137329,17,1,E
EBJ,Esbjerg Airport,Esbjerg,Denmark,EBJ,EKEB,55.525901794433594,8.553400039672852,97,1,E
KRP,Karup Airport,Karup,Denmark,KRP,EKKA,56.29750061035156,9.124629974365234,170,1,E
ODE,Odense Airport,Odense,Denmark,ODE,EKOD,55.47669982910156,10.330900192260742,56,1,E
RKE,Copenhagen Roskilde Airport,Copenhagen,Denmark,RKE,EKRK,55.585601806640625,12.131400108337402,146,1,E
RNN,Bornholm Airport,Ronne,Denmark,RNN,EKRN,55.06330108642578,14.759599685668945,52,1,E
SGD,Sønderborg Airport,Soenderborg,Denmark,SGD,EKSB,54.96440124511719,9.791729927062988,24,1,E
SKS,Skrydstrup Air Base,Skrydstrup,Denmark,SKS,EKSP,55.221048,9.26702,141,1,E
TED,Thisted Airport,Thisted,Denmark,TED,EKTS,57.06880187988281,8.705220222473145,23,1,E
FAE,Vagar Airport,Vagar,Faroe Islands,FAE,EKVG,62.0635986328125,-7.277219772338867,280,0,E
STA,Stauning Airport,Stauning,Denmark,STA,EKVJ,55.9901008605957,8.353910446166992,17,1,E
AAL,Aalborg Airport,Aalborg,Denmark,AAL,EKYT,57.0927589138,9.84924316406,10,1,E
LUX,Luxembourg-Findel International Airport,Luxemburg,Luxembourg,LUX,ELLX,49.6233333,6.2044444,1234,1,E
AES,Ålesund Airport,Alesund,Norway,AES,ENAL,62.5625,6.119699954986572,69,1,E
ANX,Andøya Airport,Andoya,Norway,ANX,ENAN,69.292503356934,16.144199371338,43,1,E
ALF,Alta Airport,Alta,Norway,ALF,ENAT,69.976097106934,23.371700286865,9,1,E
BNN,Brønnøysund Airport,Bronnoysund,Norway,BNN,ENBN,65.461097717285,12.217499732971,25,1,E
BOO,Bodø Airport,Bodo,Norway,BOO,ENBO,67.26920318603516,14.365300178527832,42,1,E
BGO,Bergen Airport Flesland,Bergen,Norway,BGO,ENBR,60.29339981,5.218140125,170,1,E
BJF,Båtsfjord Airport,Batsfjord,Norway,BJF,ENBS,70.60050201416,29.691400527954,490,1,E
KRS,Kristiansand Airport,Kristiansand,Norway,KRS,ENCN,58.204200744628906,8.085370063781738,57,1,E
BDU,Bardufoss Airport,Bardufoss,Norway,BDU,ENDU,69.055801391602,18.540399551392,252,1,E
EVE,"Harstad/Narvik Airport, Evenes",Harstad/Narvik,Norway,EVE,ENEV,68.491302490234,16.678100585938,84,1,E
VDB,Leirin Airport,Fagernes,Norway,VDB,ENFG,61.015598297119,9.2880601882935,2697,1,E
FRO,Florø Airport,Floro,Norway,FRO,ENFL,61.583599090576,5.0247201919556,37,1,E
OSL,Oslo Gardermoen Airport,Oslo,Norway,OSL,ENGM,60.193901062012,11.100399971008,681,1,E
HAU,Haugesund Airport,Haugesund,Norway,HAU,ENHD,59.34529876709,5.2083601951599,86,1,E
HAA,Hasvik Airport,Hasvik,Norway,HAA,ENHK,70.486701965332,22.139699935913,21,1,E
KSU,Kristiansund Airport (Kvernberget),Kristiansund,Norway,KSU,ENKB,63.111801147461,7.824520111084,204,1,E
KKN,Kirkenes Airport (Høybuktmoen),Kirkenes,Norway,KKN,ENKR,69.725799560547,29.891300201416,283,1,E
FAN,Lista Airport,Farsund,Norway,FAN,ENLI,58.0994987487793,6.626049995422363,29,1,E
MOL,Molde Airport,Molde,Norway,MOL,ENML,62.744701385498,7.2624998092651,10,1,E
MJF,Mosjøen Airport (Kjærstad),Mosjoen,Norway,MJF,ENMS,65.783996582031,13.214900016785,237,1,E
LKL,Banak Airport,Lakselv,Norway,LKL,ENNA,70.068801879883,24.973499298096,25,1,E
NTB,Notodden Airport,Notodden,Norway,NTB,ENNO,59.565701,9.21222,63,1,E
OLA,Ørland Airport,Orland,Norway,OLA,ENOL,63.69889831542969,9.604000091552734,28,1,E
RRS,Røros Airport,Roros,Norway,RRS,ENRO,62.578399658203,11.342300415039,2054,1,E
RYG,Moss-Rygge Airport,Rygge,Norway,RYG,ENRY,59.378817,10.785439,174,1,E
LYR,"Svalbard Airport, Longyear",Svalbard,Norway,LYR,ENSB,78.246101379395,15.465600013733,88,1,E
SKE,Skien Airport,Skien,Norway,SKE,ENSN,59.185001373291016,9.566940307617188,463,1,E
SRP,Stord Airport,Stord,Norway,SRP,ENSO,59.791900634765625,5.340849876403809,160,1,E
SSJ,Sandnessjøen Airport (Stokka),Sandnessjoen,Norway,SSJ,ENST,65.956802368164,12.468899726868,56,1,E
TOS,Tromsø Airport,Tromso,Norway,TOS,ENTC,69.68329620361328,18.918899536132812,31,1,E
TRF,"Sandefjord Airport, Torp",Sandefjord,Norway,TRF,ENTO,59.1866989136,10.258600235,286,1,E
TRD,Trondheim Airport Værnes,Trondheim,Norway,TRD,ENVA,63.4578018,10.9239998,56,1,E
SVG,Stavanger Airport Sola,Stavanger,Norway,SVG,ENZV,58.876701354,5.6377801895,29,1,E
GDN,Gdańsk Lech Wałęsa Airport,Gdansk,Poland,GDN,EPGD,54.377601623535156,18.46619987487793,489,1,E
KRK,John Paul II International Airport Kraków-Balice Airport,Krakow,Poland,KRK,EPKK,50.077701568603516,19.784799575805664,791,1,E
KTW,Katowice International Airport,Katowice,Poland,KTW,EPKT,50.4743,19.08,995,1,E
POZ,Poznań-Ławica Airport,Poznan,Poland,POZ,EPPO,52.421001434299995,16.8262996674,308,1,E
RZE,Rzeszów-Jasionka Airport,Rzeszow,Poland,RZE,EPRZ,50.1100006104,22.0189990997,675,1,E
SZZ,Szczecin-Goleniów Solidarność Airport,Szczecin,Poland,SZZ,EPSC,53.584701538100006,14.902199745199999,154,1,E
OSP,Redzikowo Air Base,Slupsk,Poland,OSP,EPSK,54.47890090942383,17.107500076293945,217,1,E
WAW,Warsaw Chopin Airport,Warsaw,Poland,WAW,EPWA,52.1656990051,20.967100143399996,362,1,E
WRO,Copernicus Wrocław Airport,Wroclaw,Poland,WRO,EPWR,51.1026992798,16.885799408,404,1,E
IEG,Zielona Góra-Babimost Airport,Zielona Gora,Poland,IEG,EPZG,52.138500213600004,15.7986001968,194,1,E
RNB,Ronneby Airport,Ronneby,Sweden,RNB,ESDF,56.266700744629,15.265000343323,191,1,E
GOT,Gothenburg-Landvetter Airport,Gothenborg,Sweden,GOT,ESGG,57.662799835205,12.279800415039,506,1,E
JKG,Jönköping Airport,Joenkoeping,Sweden,JKG,ESGJ,57.757598876953125,14.068699836730957,741,1,E
LDK,Lidköping-Hovby Airport,Lidkoping,Sweden,LDK,ESGL,58.46549987793,13.17440032959,200,1,E
GSE,Gothenburg City Airport,Gothenborg,Sweden,GSE,ESGP,57.77470016479492,11.870400428771973,59,1,E
KVB,Skövde Airport,Skovde,Sweden,KVB,ESGR,58.45640182495117,13.972700119018555,324,1,E
THN,Trollhättan-Vänersborg Airport,Trollhattan,Sweden,THN,ESGT,58.31809997558594,12.345000267028809,137,1,E
KSK,Karlskoga Airport,Karlskoga,Sweden,KSK,ESKK,59.34590148925781,14.49590015411377,400,1,E
MXX,Mora Airport,Mora,Sweden,MXX,ESKM,60.95790100097656,14.51140022277832,634,1,E
NYO,Stockholm Skavsta Airport,Stockholm,Sweden,NYO,ESKN,58.78860092163086,16.912200927734375,140,1,E
KID,Kristianstad Airport,Kristianstad,Sweden,KID,ESMK,55.92169952392578,14.08549976348877,76,1,E
JLD,Landskrona Airport,Landskrona,Sweden,JLD,ESML,55.94599914550781,12.869999885559082,194,1,E
OSK,Oskarshamn Airport,Oskarshamn,Sweden,OSK,ESMO,57.350498199463,16.497999191284,96,1,E
KLR,Kalmar Airport,Kalkmar,Sweden,KLR,ESMQ,56.68550109863281,16.287599563598633,17,1,E
MMX,Malmö Sturup Airport,Malmoe,Sweden,MMX,ESMS,55.536305364,13.376197814900001,236,1,E
HAD,Halmstad Airport,Halmstad,Sweden,HAD,ESMT,56.69110107421875,12.820199966430664,101,1,E
VXO,Växjö Kronoberg Airport,Vaxjo,Sweden,VXO,ESMX,56.929100036621094,14.727999687194824,610,1,E
EVG,Sveg Airport,Sveg,Sweden,EVG,ESND,62.04779815673828,14.422900199890137,1178,1,E
GEV,Gällivare Airport,Gallivare,Sweden,GEV,ESNG,67.13240051269531,20.814599990844727,1027,1,E
HUV,Hudiksvall Airport,Hudiksvall,Sweden,HUV,ESNH,61.7681007385,17.0806999207,95,1,E
KRF,Kramfors Sollefteå Airport,Kramfors,Sweden,KRF,ESNK,63.04859924316406,17.76889991760254,34,1,E
LYC,Lycksele Airport,Lycksele,Sweden,LYC,ESNL,64.54830169677734,18.71619987487793,705,1,E
SDL,Sundsvall-Härnösand Airport,Sundsvall,Sweden,SDL,ESNN,62.528099060058594,17.443899154663086,16,1,E
OER,Örnsköldsvik Airport,Ornskoldsvik,Sweden,OER,ESNO,63.40829849243164,18.989999771118164,354,1,E
KRN,Kiruna Airport,Kiruna,Sweden,KRN,ESNQ,67.821998596191,20.336799621582,1508,1,E
SFT,Skellefteå Airport,Skelleftea,Sweden,SFT,ESNS,64.62480163574219,21.076900482177734,157,1,E
UME,Umeå Airport,Umea,Sweden,UME,ESNU,63.791801452637,20.282800674438,24,1,E
VHM,Vilhelmina Airport,Vilhelmina,Sweden,VHM,ESNV,64.5791015625,16.833599090576172,1140,1,E
AJR,Arvidsjaur Airport,Arvidsjaur,Sweden,AJR,ESNX,65.59030151367188,19.28190040588379,1245,1,E
ORB,Örebro Airport,Orebro,Sweden,ORB,ESOE,59.22370147705078,15.038000106811523,188,1,E
VST,Stockholm Västerås Airport,Vasteras,Sweden,VST,ESOW,59.58940124511719,16.63360023498535,21,1,E
LLA,Luleå Airport,Lulea,Sweden,LLA,ESPA,65.543800354004,22.121999740601,65,1,E
ARN,Stockholm-Arlanda Airport,Stockholm,Sweden,ARN,ESSA,59.651901245117,17.918600082397,137,1,E
BMA,Stockholm-Bromma Airport,Stockholm,Sweden,BMA,ESSB,59.354400634765625,17.941699981689453,47,1,E
BLE,Borlange Airport,Borlange,Sweden,BLE,ESSD,60.422000885009766,15.515199661254883,503,1,E
HLF,Hultsfred Airport,Hultsfred,Sweden,HLF,ESSF,57.525798797607,15.823300361633,366,1,E
GVX,Gävle Sandviken Airport,Gavle,Sweden,GVX,ESSK,60.593299865722656,16.951400756835938,224,1,E
LPI,Linköping City Airport,Linkoeping,Sweden,LPI,ESSL,58.4062004089,15.680500030500001,172,1,E
NRK,Norrköping Airport,Norrkoeping,Sweden,NRK,ESSP,58.586299896240234,16.250600814819336,32,1,E
VBY,Visby Airport,Visby,Sweden,VBY,ESSV,57.662799835205,18.346200942993,164,1,E
SPM,Spangdahlem Air Base,Spangdahlem,Germany,SPM,ETAD,49.9726982117,6.69250011444,1197,1,E
RMS,Ramstein Air Base,Ramstein,Germany,RMS,ETAR,49.4369010925293,7.600279808044434,776,1,E
GHF,[Duplicate] Giebelstadt Army Air Field,Giebelstadt,Germany,GHF,ETEU,49.648101806599996,9.966489791870002,980,1,E
ZCN,Celle Airport,Celle,Germany,ZCN,ETHC,52.59120178222656,10.022100448608398,129,1,E
ZNF,Hanau Army Air Field,Hanau,Germany,ZNF,ETID,50.169201,8.96159,368,1,E
GKE,Geilenkirchen Air Base,Geilenkirchen,Germany,GKE,ETNG,50.9608,6.04242,296,1,E
RLG,Rostock-Laage Airport,Laage,Germany,RLG,ETNL,53.9182014465,12.278300285299999,138,1,E
FEL,Fürstenfeldbruck Airport,Fuerstenfeldbruck,Germany,FEL,ETSF,48.2055549621582,11.26694393157959,1703,1,E
IGS,Ingolstadt Manching Airport,Ingolstadt,Germany,IGS,ETSI,48.7156982421875,11.534000396728516,1202,1,E
GUT,Gütersloh Air Base,Guetersloh,Germany,GUT,ETUO,51.922798,8.30633,236,1,E
ALJ,Alexander Bay Airport,Alexander Bay,South Africa,ALJ,FAAB,-28.5750007629,16.5333003998,98,2,U
AGZ,Aggeneys Airport,Aggeneys,South Africa,AGZ,FAAG,-29.28179931640625,18.813899993896484,2648,2,U
BIY,Bisho Airport,Bisho,South Africa,BIY,FABE,-32.8970985413,27.279100418099997,1950,2,U
BFN,Bram Fischer International Airport,Bloemfontein,South Africa,BFN,FABL,-29.092699050900002,26.302400589,4458,2,U
CPT,Cape Town International Airport,Cape Town,South Africa,CPT,FACT,-33.9648017883,18.6016998291,151,2,U
DUR,King Shaka International Airport,Durban,South Africa,DUR,FALE,-29.6144444444,31.1197222222,295,2,U
ELS,Ben Schoeman Airport,East London,South Africa,ELS,FAEL,-33.0355987549,27.825899124099998,435,2,U
GCJ,Grand Central Airport,Johannesburg,South Africa,GCJ,FAGC,-25.986299514799995,28.1401004791,5325,2,U
GRJ,George Airport,George,South Africa,GRJ,FAGG,-34.0055999756,22.378900528,648,2,U
HDS,Hoedspruit Air Force Base Airport,Hoedspruit,South Africa,HDS,FAHS,-24.368600845299998,31.0487003326,1743,2,U
JNB,OR Tambo International Airport,Johannesburg,South Africa,JNB,FAJS,-26.1392,28.246,5558,2,U
KIM,Kimberley Airport,Kimberley,South Africa,KIM,FAKM,-28.802799224900003,24.7651996613,3950,2,U
KMH,Johan Pienaar Airport,Kuruman,South Africa,KMH,FAKU,-27.45669937133789,23.411399841308594,4382,2,U
KLZ,Kleinsee Airport,Kleinsee,South Africa,KLZ,FAKZ,-29.6884002686,17.093999862700002,270,2,U
HLA,Lanseria Airport,Johannesburg,South Africa,HLA,FALA,-25.938499450699997,27.9260997772,4517,2,U
LAY,Ladysmith Airport,Ladysmith,South Africa,LAY,FALY,-28.5816993713,29.749700546299998,3548,2,U
MGH,Margate Airport,Margate,South Africa,MGH,FAMG,-30.8574008942,30.343000412,495,2,U
MEZ,Morningside Farm Airport,Musina,South Africa,MEZ,FAMS,-25.7045001984,26.9090003967,4251,2,U
NCS,Newcastle Airport,Newcastle,South Africa,NCS,FANC,-27.7705993652,29.976900100699996,4074,2,U
DUH,Oudtshoorn Airport,Oudtshoorn,South Africa,DUH,FAOH,-33.6069984436,22.188999176,1063,2,U
PLZ,Port Elizabeth Airport,Port Elizabeth,South Africa,PLZ,FAPE,-33.9849014282,25.6173000336,226,2,U
PHW,Hendrik Van Eck Airport,Phalaborwa,South Africa,PHW,FAPH,-23.937200546299998,31.1553993225,1432,2,U
PZB,Pietermaritzburg Airport,Pietermaritzburg,South Africa,PZB,FAPM,-29.649000167799997,30.3987007141,2423,2,U
NTY,Pilanesberg International Airport,Pilanesberg,South Africa,NTY,FAPN,-25.333799362199997,27.173400878900004,3412,2,U
PTG,Polokwane International Airport,Potgietersrus,South Africa,PTG,FAPP,-23.845269,29.458615,4076,2,U
UTW,Queenstown Airport,Queenstown,South Africa,UTW,FAQT,-31.92020034790039,26.882200241088867,3637,2,U
RCB,Richards Bay Airport,Richard's Bay,South Africa,RCB,FARB,-28.740999221800003,32.0920982361,109,2,U
ROD,Robertson Airport,Robertson,South Africa,ROD,FARS,-33.812198638916016,19.902799606323242,640,2,U
SBU,Springbok Airport,Springbok,South Africa,SBU,FASB,-29.689300537109375,17.939599990844727,2690,2,U
SIS,Sishen Airport,Sishen,South Africa,SIS,FASS,-27.6485996246,22.9993000031,3848,2,U
SZK,Skukuza Airport,Skukuza,South Africa,SZK,FASZ,-24.960899353,31.5886993408,1020,2,U
LTA,Tzaneen Airport,Tzaneen,South Africa,LTA,FATZ,-23.8243999481,30.329299926799997,1914,2,U
ULD,Prince Mangosuthu Buthelezi Airport,Ulundi,South Africa,ULD,FAUL,-28.3206005096,31.4165000916,1720,2,U
UTN,Pierre Van Ryneveld Airport,Upington,South Africa,UTN,FAUP,-28.39909935,21.260200500499998,2782,2,U
UTT,K. D. Matanzima Airport,Umtata,South Africa,UTT,FAUT,-31.546363184900002,28.6733551025,2400,2,U
VRU,Vryburg Airport,Vryburg,South Africa,VRU,FAVB,-26.9824008942,24.7287998199,3920,2,U
VIR,Virginia Airport,Durban,South Africa,VIR,FAVG,-29.770599365234375,31.058399200439453,20,2,U
PRY,Wonderboom Airport,Pretoria,South Africa,PRY,FAWB,-25.6539,28.224199,4095,2,U
WEL,Welkom Airport,Welkom,South Africa,WEL,FAWM,-27.996824511099998,26.663333892799997,4421,2,U
FRW,Francistown Airport,Francistown,Botswana,FRW,FBFT,-21.15959930419922,27.47450065612793,3283,2,U
JWA,Jwaneng Airport,Jwaneng,Botswana,JWA,FBJW,-24.6023006439209,24.69099998474121,3900,2,U
BBK,Kasane Airport,Kasane,Botswana,BBK,FBKE,-17.83289909362793,25.162399291992188,3289,2,U
MUB,Maun Airport,Maun,Botswana,MUB,FBMN,-19.97260093688965,23.431100845336914,3093,2,U
GBE,Sir Seretse Khama International Airport,Gaberone,Botswana,GBE,FBSK,-24.555200576782227,25.91819953918457,3299,2,U
PKW,Selebi Phikwe Airport,Selebi-phikwe,Botswana,PKW,FBSP,-22.0583,27.8288,2925,2,U
BZV,Maya-Maya Airport,Brazzaville,Congo (Brazzaville),BZV,FCBB,-4.251699924468994,15.253000259399414,1048,1,N
FTX,Owando Airport,Owando,Congo (Kinshasa),FTX,FCOO,-0.5313500165939331,15.95009994506836,1214,1,N
OUE,Ouesso Airport,Ouesso,Congo (Kinshasa),OUE,FCOU,1.6159900426899998,16.0379009247,1158,1,N
PNR,Pointe Noire Airport,Pointe-noire,Congo (Brazzaville),PNR,FCPP,-4.816030025482178,11.88659954071045,55,1,N
MTS,Matsapha Airport,Manzini,Swaziland,MTS,FDMS,-26.52899932861328,31.3075008392334,2075,2,U
BGF,Bangui M'Poko International Airport,Bangui,Central African Republic,BGF,FEFF,4.39847993850708,18.518800735473633,1208,1,N
BBT,Berbérati Airport,Berberati,Central African Republic,BBT,FEFT,4.2215800285339355,15.786399841308594,1929,1,N
BSG,Bata Airport,Bata,Equatorial Guinea,BSG,FGBT,1.9054700136184692,9.805680274963379,13,1,N
SSG,Malabo Airport,Malabo,Equatorial Guinea,SSG,FGSL,3.755270004272461,8.708720207214355,76,1,N
ASI,RAF Ascension Island,Wide Awake,Saint Helena,ASI,FHAW,-7.969600200653076,-14.393699645996094,278,0,N
MRU,Sir Seewoosagur Ramgoolam International Airport,Plaisance,Mauritius,MRU,FIMP,-20.430200576782227,57.68360137939453,186,4,N
RRG,Sir Charles Gaetan Duval Airport,Rodriguez Island,Mauritius,RRG,FIMR,-19.757699966430664,63.361000061035156,95,4,N
TKC,Tiko Airport,Tiko,Cameroon,TKC,FKKC,4.08919000626,9.360529899600001,151,1,N
DLA,Douala International Airport,Douala,Cameroon,DLA,FKKD,4.0060801506,9.719479560849999,33,1,N
MVR,Salak Airport,Maroua,Cameroon,MVR,FKKL,10.451399803161621,14.257399559020996,1390,1,N
FOM,Foumban Nkounja Airport,Foumban,Cameroon,FOM,FKKM,5.636919975280762,10.750800132751465,3963,1,N
NGE,N'Gaoundéré Airport,N'gaoundere,Cameroon,NGE,FKKN,7.3570098876953125,13.559200286865234,3655,1,N
GOU,Garoua International Airport,Garoua,Cameroon,GOU,FKKR,9.33588981628418,13.370100021362305,794,1,N
BFX,Bafoussam Airport,Bafoussam,Cameroon,BFX,FKKU,5.536920070650001,10.354599952700001,4347,1,N
BPC,Bamenda Airport,Bamenda,Cameroon,BPC,FKKV,6.039239883422852,10.122599601745605,4065,1,N
YAO,Yaoundé Airport,Yaounde,Cameroon,YAO,FKKY,3.8360400199890137,11.523500442504883,2464,1,N
LVI,Livingstone Airport,Livingstone,Zambia,LVI,FLLI,-17.821800231933594,25.82270050048828,3302,2,U
LUN,Kenneth Kaunda International Airport Lusaka,Lusaka,Zambia,LUN,FLLS,-15.3308000565,28.4526004791,3779,2,U
MFU,Mfuwe Airport,Mfuwe,Zambia,MFU,FLMF,-13.258899688720703,31.936599731445312,1853,2,U
NLA,Simon Mwansa Kapwepwe International Airport,Ndola,Zambia,NLA,FLND,-12.998100280762,28.66489982605,4167,2,U
KIW,Southdowns Airport,Southdowns,Zambia,KIW,FLSO,-12.900500297546387,28.149900436401367,4145,2,U
HAH,Prince Said Ibrahim International Airport,Moroni,Comoros,HAH,FMCH,-11.5337,43.2719,93,3,U
NWA,Mohéli Bandar Es Eslam Airport,Moheli,Comoros,NWA,FMCI,-12.298100471496582,43.76639938354492,46,3,U
AJN,Ouani Airport,Anjouan,Comoros,AJN,FMCV,-12.131699562072754,44.430301666259766,62,3,U
DZA,Dzaoudzi Pamandzi International Airport,Dzaoudzi,Mayotte,DZA,FMCZ,-12.804699897766113,45.28110122680664,23,3,U
RUN,Roland Garros Airport,St.-denis,Reunion,RUN,FMEE,-20.887100219726562,55.51029968261719,66,4,U
ZSE,Pierrefonds Airport,St.-pierre,Reunion,ZSE,FMEP,-21.320899963378906,55.42499923706055,59,4,U
TNR,Ivato Airport,Antananarivo,Madagascar,TNR,FMMI,-18.7968997955,47.4788017273,4198,3,U
ZVA,Miandrivazo Airport,Miandrivazo,Madagascar,ZVA,FMMN,-19.56279945373535,45.450801849365234,203,3,U
SMS,Sainte Marie Airport,Sainte Marie,Madagascar,SMS,FMMS,-17.093900680541992,49.815799713134766,7,3,U
TMM,Toamasina Airport,Toamasina,Madagascar,TMM,FMMT,-18.109500885009766,49.39250183105469,22,3,U
MOQ,Morondava Airport,Morondava,Madagascar,MOQ,FMMV,-20.284700393676758,44.31760025024414,30,3,U
DIE,Arrachart Airport,Antsiranana,Madagascar,DIE,FMNA,-12.34939956665039,49.29169845581055,374,3,U
WMR,Mananara Nord Airport,Mananara,Madagascar,WMR,FMNC,-16.16390037536621,49.773799896240234,9,3,U
ZWA,Andapa Airport,Andapa,Madagascar,ZWA,FMND,-14.651700019836426,49.620601654052734,1552,3,U
AMB,Ambilobe Airport,Ambilobe,Madagascar,AMB,FMNE,-13.188400268554688,48.987998962402344,72,3,U
ANM,Antsirabato Airport,Antalaha,Madagascar,ANM,FMNH,-14.99940013885498,50.3202018737793,20,3,U
HVA,Analalava Airport,Analalava,Madagascar,HVA,FMNL,-14.62969970703125,47.76380157470703,345,3,U
MJN,Amborovy Airport,Mahajanga,Madagascar,MJN,FMNM,-15.6668417421,46.351232528699995,87,3,U
NOS,Fascene Airport,Nosy-be,Madagascar,NOS,FMNN,-13.3121004105,48.3148002625,36,3,U
BPY,Besalampy Airport,Besalampy,Madagascar,BPY,FMNQ,-16.744530296500002,44.4824838638,125,3,U
WMN,Maroantsetra Airport,Maroantsetra,Madagascar,WMN,FMNR,-15.436699867248535,49.68830108642578,13,3,U
SVB,Sambava Airport,Sambava,Madagascar,SVB,FMNS,-14.278599739074707,50.17470169067383,20,3,U
VOH,Vohimarina Airport,Vohemar,Madagascar,VOH,FMNV,-13.375800132751465,50.00279998779297,19,3,U
WAI,Ambalabe Airport,Antsohihy,Madagascar,WAI,FMNW,-14.898799896240234,47.993900299072266,92,3,U
IVA,Ampampamena Airport,Ampampamena,Madagascar,IVA,FMNZ,-13.484816,48.632702,49,3,U
FTU,Tôlanaro Airport,Tolagnaro,Madagascar,FTU,FMSD,-25.03809928894043,46.95610046386719,29,3,U
WFI,Fianarantsoa Airport,Fianarantsoa,Madagascar,WFI,FMSF,-21.441600799560547,47.111698150634766,3658,3,U
RVA,Farafangana Airport,Farafangana,Madagascar,RVA,FMSG,-22.805299758911133,47.82059860229492,26,3,U
WVK,Manakara Airport,Manakara,Madagascar,WVK,FMSK,-22.119699478149414,48.02170181274414,33,3,U
MNJ,Mananjary Airport,Mananjary,Madagascar,MNJ,FMSM,-21.201799392700195,48.358299255371094,20,3,U
MXM,Morombe Airport,Morombe,Madagascar,MXM,FMSR,-21.7539005279541,43.3754997253418,16,3,U
TLE,Toliara Airport,Toliara,Madagascar,TLE,FMST,-23.383399963378906,43.72850036621094,29,3,U
SSY,Mbanza Congo Airport,M'banza-congo,Angola,SSY,FNBC,-6.269899845123291,14.246999740600586,1860,1,N
BUG,Benguela Airport,Benguela,Angola,BUG,FNBG,-12.609000206,13.4036998749,118,1,N
CAB,Cabinda Airport,Cabinda,Angola,CAB,FNCA,-5.59699010848999,12.188400268554688,66,1,N
NOV,Nova Lisboa Airport,Huambo,Angola,NOV,FNHU,-12.808899879455566,15.760499954223633,5587,1,N
SVP,Kuito Airport,Kuito,Angola,SVP,FNKU,-12.404600143433,16.947399139404,5618,1,N
LAD,Quatro de Fevereiro Airport,Luanda,Angola,LAD,FNLU,-8.85836982727,13.231200218199998,243,1,N
MEG,Malanje Airport,Malanje,Angola,MEG,FNMA,-9.525090217590332,16.312400817871094,3868,1,N
SPP,Menongue Airport,Menongue,Angola,SPP,FNME,-14.657600402832031,17.71980094909668,4469,1,N
GXG,Negage Airport,Negage,Angola,GXG,FNNG,-7.754509925842285,15.287699699401855,4105,1,N
PBN,Porto Amboim Airport,Porto Amboim,Angola,PBN,FNPA,-10.722000122070312,13.76550006866455,16,1,N
VHC,Saurimo Airport,Saurimo,Angola,VHC,FNSA,-9.689069747924805,20.431900024414062,3584,1,N
SZA,Soyo Airport,Soyo,Angola,SZA,FNSO,-6.141089916229248,12.371800422668457,15,1,N
SDD,Lubango Airport,Lubango,Angola,SDD,FNUB,-14.924699783325195,13.574999809265137,5778,1,N
LUO,Luena Airport,Luena,Angola,LUO,FNUE,-11.768099784851074,19.8976993560791,4360,1,N
UGO,Uige Airport,Uige,Angola,UGO,FNUG,-7.60306978225708,15.027799606323242,2720,1,N
XGN,Xangongo Airport,Xangongo,Angola,XGN,FNXA,-16.755399703979492,14.965299606323242,3635,1,N
OYE,Oyem Airport,Oyem,Gabon,OYE,FOGO,1.5431100130081177,11.581399917602539,2158,1,N
OKN,Okondja Airport,Okondja,Gabon,OKN,FOGQ,-0.6652140021324158,13.673100471496582,1325,1,N
LBQ,Lambarene Airport,Lambarene,Gabon,LBQ,FOGR,-0.7043889760971069,10.245699882507324,82,1,N
BMM,Bitam Airport,Bitam,Gabon,BMM,FOOB,2.0756399631500244,11.493200302124023,1969,1,N
POG,Port Gentil Airport,Port Gentil,Gabon,POG,FOOG,-0.7117390036582947,8.754380226135254,13,1,N
OMB,Omboue Hopital Airport,Omboue Hospial,Gabon,OMB,FOOH,-1.5747300386428833,9.262689590454102,33,1,N
MKU,Makokou Airport,Makokou,Gabon,MKU,FOOK,0.5792109966278076,12.890899658203125,1726,1,N
LBV,Libreville Leon M'ba International Airport,Libreville,Gabon,LBV,FOOL,0.458600014448,9.412280082699999,39,1,N
MVB,M'Vengue El Hadj Omar Bongo Ondimba International Airport,Franceville,Gabon,MVB,FOON,-1.6561599969863892,13.437999725341797,1450,1,N
PCP,Principe Airport,Principe,Sao Tome and Principe,PCP,FPPR,1.6629400253295898,7.411739826202393,591,0,N
TMS,São Tomé International Airport,Sao Tome,Sao Tome and Principe,TMS,FPST,0.3781749904155731,6.7121500968933105,33,0,N
BEW,Beira Airport,Beira,Mozambique,BEW,FQBR,-19.79640007019043,34.90760040283203,33,2,U
INH,Inhambane Airport,Inhambane,Mozambique,INH,FQIN,-23.876399993896484,35.40850067138672,30,2,U
VXC,Lichinga Airport,Lichinga,Mozambique,VXC,FQLC,-13.27400016784668,35.266300201416016,4505,2,U
MPM,Maputo Airport,Maputo,Mozambique,MPM,FQMA,-25.920799255371094,32.572601318359375,145,2,U
MZB,Mocímboa da Praia Airport,Mocimboa Da Praia,Mozambique,MZB,FQMP,-11.361800193786621,40.35490036010742,89,2,U
MNC,Nacala Airport,Nacala,Mozambique,MNC,FQNC,-14.488200187683105,40.71220016479492,410,2,U
APL,Nampula Airport,Nampula,Mozambique,APL,FQNP,-15.105600357055664,39.28179931640625,1444,2,U
POL,Pemba Airport,Pemba,Mozambique,POL,FQPB,-12.991762161254883,40.52401351928711,331,2,U
UEL,Quelimane Airport,Quelimane,Mozambique,UEL,FQQL,-17.855499267578125,36.86909866333008,36,2,U
TET,Chingozi Airport,Tete,Mozambique,TET,FQTT,-16.104799270629883,33.640201568603516,525,2,U
VNX,Vilankulo Airport,Vilankulu,Mozambique,VNX,FQVL,-22.018400192260742,35.31330108642578,46,2,U
DES,Desroches Airport,Desroches,Seychelles,DES,FSDR,-5.6967,53.6558,10,4,U
SEZ,Seychelles International Airport,Mahe,Seychelles,SEZ,FSIA,-4.674339771270752,55.52180099487305,10,4,U
PRI,Praslin Airport,Praslin,Seychelles,PRI,FSPP,-4.3192901611328125,55.69139862060547,10,4,U
AEH,Abeche Airport,Abeche,Chad,AEH,FTTC,13.847000122070312,20.84429931640625,1788,1,N
MQQ,Moundou Airport,Moundou,Chad,MQQ,FTTD,8.624409675598145,16.071399688720703,1407,1,N
NDJ,N'Djamena International Airport,N'djamena,Chad,NDJ,FTTJ,12.133700370788574,15.034000396728516,968,1,N
FYT,Faya Largeau Airport,Faya-largeau,Chad,FYT,FTTY,17.91710090637207,19.111099243164062,771,1,N
BUQ,Joshua Mqabuko Nkomo International Airport,Bulawayo,Zimbabwe,BUQ,FVBU,-20.01740074157715,28.617900848388672,4359,2,U
BFO,Buffalo Range Airport,Chiredzi,Zimbabwe,BFO,FVCZ,-21.008100509643555,31.57859992980957,1421,2,U
VFA,Victoria Falls International Airport,Victoria Falls,Zimbabwe,VFA,FVFA,-18.09589958190918,25.839000701904297,3490,2,U
HRE,Harare International Airport,Harare,Zimbabwe,HRE,FVHA,-17.931800842285156,31.09280014038086,4887,2,U
KAB,Kariba International Airport,Kariba,Zimbabwe,KAB,FVKB,-16.519800186157227,28.885000228881836,1706,2,U
MVZ,Masvingo International Airport,Masvingo,Zimbabwe,MVZ,FVMV,-20.055299758911133,30.859100341796875,3595,2,U
GWE,Thornhill Air Base,Gwert,Zimbabwe,GWE,FVTL,-19.436399459838867,29.861900329589844,4680,2,U
WKM,Hwange National Park Airport,Hwange National Park,Zimbabwe,WKM,FVWN,-18.629899978637695,27.020999908447266,3543,2,U
BLZ,Chileka International Airport,Blantyre,Malawi,BLZ,FWCL,-15.679100036621094,34.9739990234375,2555,2,U
KGJ,Karonga Airport,Karonga,Malawi,KGJ,FWKA,-9.953570365905762,33.893001556396484,1765,2,U
LLW,Lilongwe International Airport,Lilongwe,Malawi,LLW,FWKI,-13.7894001007,33.78099823,4035,2,U
ZZU,Mzuzu Airport,Mzuzu,Malawi,ZZU,FWUU,-11.444700241088867,34.01179885864258,4115,2,U
MSU,Moshoeshoe I International Airport,Maseru,Lesotho,MSU,FXMM,-29.462299346923828,27.552499771118164,5348,2,U
FIH,Ndjili International Airport,Kinshasa,Congo (Kinshasa),FIH,FZAA,-4.38574981689,15.4446001053,1027,1,N
NLO,Ndolo Airport,Kinshasa,Congo (Kinshasa),NLO,FZAB,-4.32666015625,15.327500343323,915,1,N
MNB,Muanda Airport,Muanda,Congo (Kinshasa),MNB,FZAG,-5.9308600425720215,12.351799964904785,89,1,N
FDU,Bandundu Airport,Bandoundu,Congo (Kinshasa),FDU,FZBO,-3.3113200664520264,17.38170051574707,1063,1,N
KKW,Kikwit Airport,Kikwit,Congo (Kinshasa),KKW,FZCA,-5.035769939422607,18.785600662231445,1572,1,N
MDK,Mbandaka Airport,Mbandaka,Congo (Kinshasa),MDK,FZEA,0.0226000007242,18.2887001038,1040,1,N
BDT,Gbadolite Airport,Gbadolite,Congo (Kinshasa),BDT,FZFD,4.253210067749023,20.975299835205078,1509,1,N
GMA,Gemena Airport,Gemena,Congo (Kinshasa),GMA,FZFK,3.2353699207299997,19.771299362199997,1378,1,N
LIQ,Lisala Airport,Lisala,Congo (Kinshasa),LIQ,FZGA,2.1706600189208984,21.49690055847168,1509,1,N
FKI,Bangoka International Airport,Kisangani,Congo (Kinshasa),FKI,FZIC,0.481638997793,25.3379993439,1417,2,U
IRP,Matari Airport,Isiro,Congo (Kinshasa),IRP,FZJH,2.8276100158691406,27.588300704956055,2438,2,U
BUX,Bunia Airport,Bunia,Congo (Kinshasa),BUX,FZKA,1.5657199621200562,30.220800399780273,4045,2,U
BKY,Bukavu Kavumu Airport,Bukavu/kavumu,Congo (Kinshasa),BKY,FZMA,-2.3089799880981445,28.808799743652344,5643,2,U
GOM,Goma International Airport,Goma,Congo (Kinshasa),GOM,FZNA,-1.6708099842071533,29.238500595092773,5089,2,U
KND,Kindu Airport,Kindu,Congo (Kinshasa),KND,FZOA,-2.91917991638,25.915399551399997,1630,2,U
FBM,Lubumbashi International Airport,Lubumashi,Congo (Kinshasa),FBM,FZQA,-11.5913000107,27.5308990479,4295,2,U
KWZ,Kolwezi Airport,Kolwezi,Congo (Kinshasa),KWZ,FZQM,-10.765899658203125,25.505699157714844,5007,2,U
FMI,Kalemie Airport,Kalemie,Congo (Kinshasa),FMI,FZRF,-5.8755598068237305,29.25,2569,2,U
KMN,Kamina Base Airport,Kamina Base,Congo (Kinshasa),KMN,FZSA,-8.642020225524902,25.252899169921875,3543,2,U
KGA,Kananga Airport,Kananga,Congo (Kinshasa),KGA,FZUA,-5.90005016327,22.4692001343,2139,2,U
MJM,Mbuji Mayi Airport,Mbuji-mayi,Congo (Kinshasa),MJM,FZWA,-6.121240139010001,23.569000244099996,2221,2,U
BKO,Senou Airport,Bamako,Mali,BKO,GABS,12.533499717712402,-7.949940204620361,1247,0,N
GAQ,Gao Airport,Gao,Mali,GAQ,GAGO,16.24839973449707,-0.005456000100821257,870,0,N
KYS,Kayes Dag Dag Airport,Kayes,Mali,KYS,GAKY,14.481200218200684,-11.404399871826172,164,0,N
MZI,Mopti Airport,Mopti,Mali,MZI,GAMB,14.5128002167,-4.0795598030099995,906,0,N
TOM,Timbuktu Airport,Tombouctou,Mali,TOM,GATB,16.730499267578125,-3.007580041885376,863,0,N
BJL,Banjul International Airport,Banjul,Gambia,BJL,GBYD,13.338000297546387,-16.65220069885254,95,0,N
FUE,Fuerteventura Airport,Fuerteventura,Spain,FUE,GCFV,28.452699661254883,-13.863800048828125,85,0,E
VDE,Hierro Airport,Hierro,Spain,VDE,GCHI,27.814800262451172,-17.887100219726562,103,0,E
SPC,La Palma Airport,Santa Cruz De La Palma,Spain,SPC,GCLA,28.62649917602539,-17.755599975585938,107,0,E
LPA,Gran Canaria Airport,Gran Canaria,Spain,LPA,GCLP,27.931900024414062,-15.38659954071045,78,0,E
ACE,Lanzarote Airport,Arrecife,Spain,ACE,GCRR,28.945499420166016,-13.605199813842773,46,0,E
TFS,Tenerife South Airport,Tenerife,Spain,TFS,GCTS,28.044500351,-16.5725002289,209,0,E
TFN,Tenerife Norte Airport,Tenerife,Spain,TFN,GCXO,28.4827003479,-16.3414993286,2076,0,E
MLN,Melilla Airport,Melilla,Spain,MLN,GEML,35.279800415,-2.9562599659,156,1,E
FNA,Lungi International Airport,Freetown,Sierra Leone,FNA,GFLL,8.616439819335938,-13.195500373840332,84,0,N
MLW,Spriggs Payne Airport,Monrovia,Liberia,MLW,GLMR,6.289060115814209,-10.758700370788574,25,0,N
ROB,Roberts International Airport,Monrovia,Liberia,ROB,GLRB,6.233789920806885,-10.362299919128418,31,0,N
AGA,Al Massira Airport,Agadir,Morocco,AGA,GMAD,30.325000762939453,-9.413069725036621,250,0,N
TTA,Tan Tan Airport,Tan Tan,Morocco,TTA,GMAT,28.448200225830078,-11.161299705505371,653,0,N
FEZ,Saïss Airport,Fes,Morocco,FEZ,GMFF,33.9272994995,-4.977960109709999,1900,0,N
ERH,Moulay Ali Cherif Airport,Er-rachidia,Morocco,ERH,GMFK,31.9475002289,-4.39833021164,3428,0,N
MEK,Bassatine Airport,Meknes,Morocco,MEK,GMFM,33.87910079956055,-5.515120029449463,1890,0,N
OUD,Angads Airport,Oujda,Morocco,OUD,GMFO,34.787200927734375,-1.92399001121521,1535,0,N
RBA,Rabat-Salé Airport,Rabat,Morocco,RBA,GMME,34.05149841308594,-6.751520156860352,276,0,N
CMN,Mohammed V International Airport,Casablanca,Morocco,CMN,GMMN,33.36750030517578,-7.589970111846924,656,0,N
RAK,Menara Airport,Marrakech,Morocco,RAK,GMMX,31.606899261499997,-8.03629970551,1545,0,N
NNA,Kenitra Airport,Kentira,Morocco,NNA,GMMY,34.29890060424805,-6.595880031585693,16,0,N
OZZ,Ouarzazate Airport,Ouarzazate,Morocco,OZZ,GMMZ,30.9391002655,-6.909430027010001,3782,0,N
AHU,Cherif Al Idrissi Airport,Al Hociema,Morocco,AHU,GMTA,35.177101135253906,-3.83951997756958,95,0,N
TTU,Saniat R'mel Airport,Tetouan,Morocco,TTU,GMTN,35.594299316406,-5.320020198822,10,0,N
TNG,Ibn Batouta Airport,Tanger,Morocco,TNG,GMTT,35.726898193400004,-5.91689014435,62,0,N
ZIG,Ziguinchor Airport,Ziguinchor,Senegal,ZIG,GOGG,12.5556,-16.281799,75,0,N
CSK,Cap Skirring Airport,Cap Skiring,Senegal,CSK,GOGS,12.410200119018555,-16.7460994720459,52,0,N
KLC,Kaolack Airport,Kaolack,Senegal,KLC,GOOK,14.146900177001953,-16.051300048828125,26,0,N
DKR,Léopold Sédar Senghor International Airport,Dakar,Senegal,DKR,GOOY,14.739700317382812,-17.49020004272461,85,0,N
XLS,Saint Louis Airport,St. Louis,Senegal,XLS,GOSS,16.050800323486328,-16.463199615478516,9,0,N
BXE,Bakel Airport,Bakel,Senegal,BXE,GOTB,14.847299575805664,-12.468299865722656,98,0,N
KGG,Kédougou Airport,Kedougou,Senegal,KGG,GOTK,12.57229995727539,-12.22029972076416,584,0,N
TUD,Tambacounda Airport,Tambacounda,Senegal,TUD,GOTT,13.736800193786621,-13.65310001373291,161,0,N
IEO,Aioun el Atrouss Airport,Aioun El Atrouss,Mauritania,IEO,GQNA,16.711299896240234,-9.637880325317383,951,0,N
TIY,Tidjikja Airport,Tidjikja,Mauritania,TIY,GQND,18.570100784301758,-11.423500061035156,1363,0,N
KFA,Kiffa Airport,Kiffa,Mauritania,KFA,GQNF,16.59000015258789,-11.406200408935547,424,0,N
EMN,Néma Airport,Nema,Mauritania,EMN,GQNI,16.621999740600586,-7.3165998458862305,751,0,N
KED,Kaédi Airport,Kaedi,Mauritania,KED,GQNK,16.159500122070312,-13.507599830627441,66,0,N
NKC,Nouakchott International Airport,Nouakschott,Mauritania,NKC,GQNN,18.09819984436035,-15.94849967956543,13,0,N
SEY,Sélibaby Airport,Selibabi,Mauritania,SEY,GQNS,15.179699897766113,-12.207300186157227,219,0,N
ATR,Atar International Airport,Atar,Mauritania,ATR,GQPA,20.506799697875977,-13.04319953918457,734,0,N
NDB,Nouadhibou International Airport,Nouadhibou,Mauritania,NDB,GQPP,20.9330997467041,-17.030000686645508,24,0,N
FIG,Fria Airport,Fira,Guinea,FIG,GUFA,10.350600242615,-13.569199562073,499,0,N
FAA,Faranah Airport,Faranah,Guinea,FAA,GUFH,10.0354995728,-10.7698001862,1476,0,N
LEK,Tata Airport,Labe,Guinea,LEK,GULB,11.326100349426,-12.286800384521,3396,0,N
SID,Amílcar Cabral International Airport,Amilcar Cabral,Cape Verde,SID,GVAC,16.74139976501465,-22.949399948120117,177,-1,U
BVC,Rabil Airport,Boa Vista,Cape Verde,BVC,GVBA,16.136499404907227,-22.888900756835938,69,-1,U
MMO,Maio Airport,Maio,Cape Verde,MMO,GVMA,15.155900001525879,-23.213699340820312,36,-1,U
SNE,Preguiça Airport,Sao Nocolau Island,Cape Verde,SNE,GVSN,16.58839988708496,-24.284700393676758,669,-1,U
VXE,São Pedro Airport,Sao Vicente Island,Cape Verde,VXE,GVSV,16.833200454711914,-25.055299758911133,66,-1,U
ADD,Addis Ababa Bole International Airport,Addis Ababa,Ethiopia,ADD,HAAB,8.97789001465,38.799301147499996,7630,3,U
AMH,Arba Minch Airport,Arba Minch,Ethiopia,AMH,HAAM,6.0393900871276855,37.59049987792969,3901,3,U
AXU,Axum Airport,Axum,Ethiopia,AXU,HAAX,14.14680004119873,38.77280044555664,6959,3,U
BJR,Bahir Dar Airport,Bahar Dar,Ethiopia,BJR,HABD,11.608099937438965,37.32160186767578,5978,3,U
DIR,Aba Tenna Dejazmach Yilma International Airport,Dire Dawa,Ethiopia,DIR,HADR,9.624699592590332,41.85419845581055,3827,3,U
GMB,Gambella Airport,Gambella,Ethiopia,GMB,HAGM,8.12876033782959,34.5630989074707,1614,3,U
GDQ,Gonder Airport,Gondar,Ethiopia,GDQ,HAGN,12.51990032196045,37.433998107910156,6449,3,U
JIM,Jimma Airport,Jimma,Ethiopia,JIM,HAJM,7.66609001159668,36.81660079956055,5500,3,U
LLI,Lalibella Airport,Lalibella,Ethiopia,LLI,HALL,11.975000381469727,38.97999954223633,6506,3,U
MQX,Mekele Airport,Makale,Ethiopia,MQX,HAMK,13.467399597167969,39.53350067138672,7396,3,U
ASO,Asosa Airport,Asosa,Ethiopia,ASO,HASO,10.018500328063965,34.586299896240234,5100,3,U
BJM,Bujumbura International Airport,Bujumbura,Burundi,BJM,HBBA,-3.3240199089050293,29.318500518798828,2582,2,U
HGA,Egal International Airport,Hargeisa,Somalia,HGA,HCMH,9.518170356750488,44.08879852294922,4423,3,U
BBO,Berbera Airport,Berbera,Somalia,BBO,HCMI,10.389200210571289,44.94110107421875,30,3,U
KMU,Kisimayu Airport,Kismayu,Somalia,KMU,HCMK,-0.3773530125617981,42.45920181274414,49,3,U
ALY,El Nouzha Airport,Alexandria,Egypt,ALY,HEAX,31.183900833129883,29.94890022277832,-6,2,U
ABS,Abu Simbel Airport,Abu Simbel,Egypt,ABS,HEBL,22.375999450699997,31.611700058,616,2,U
CAI,Cairo International Airport,Cairo,Egypt,CAI,HECA,30.12190055847168,31.40559959411621,382,2,U
HRG,Hurghada International Airport,Hurghada,Egypt,HRG,HEGN,27.178300857543945,33.799400329589844,52,2,U
EGR,El Gora Airport,El Gorah,Egypt,EGR,HEGR,31.068559,34.129629,324,2,U
LXR,Luxor International Airport,Luxor,Egypt,LXR,HELX,25.670999527,32.706600189199996,294,2,U
MUH,Mersa Matruh Airport,Mersa-matruh,Egypt,MUH,HEMM,31.3253993988,27.221700668300002,94,2,U
PSD,Port Said Airport,Port Said,Egypt,PSD,HEPS,31.279399871826172,32.2400016784668,8,2,U
SKV,St Catherine International Airport,St. Catherine,Egypt,SKV,HESC,28.685300827,34.0625,4368,2,U
ASW,Aswan International Airport,Aswan,Egypt,ASW,HESN,23.9643993378,32.8199996948,662,2,U
ELT,El Tor Airport,El-tor,Egypt,ELT,HETR,28.208999633789062,33.64550018310547,115,2,U
EDL,Eldoret International Airport,Eldoret,Kenya,EDL,HKEL,0.4044579863548279,35.23889923095703,6941,3,U
KIS,Kisumu Airport,Kisumu,Kenya,KIS,HKKI,-0.0861390009522438,34.72890090942383,3734,3,U
KTL,Kitale Airport,Kitale,Kenya,KTL,HKKT,0.9719889760017395,34.95859909057617,6070,3,U
LOK,Lodwar Airport,Lodwar,Kenya,LOK,HKLO,3.1219699382781982,35.608699798583984,1715,3,U
LAU,Manda Airstrip,Lamu,Kenya,LAU,HKLU,-2.252419948577881,40.91310119628906,20,3,U
MBA,Mombasa Moi International Airport,Mombasa,Kenya,MBA,HKMO,-4.034830093383789,39.594200134277344,200,3,U
WIL,Nairobi Wilson Airport,Nairobi,Kenya,WIL,HKNW,-1.321720004081726,36.81480026245117,5536,3,U
WJR,Wajir Airport,Wajir,Kenya,WJR,HKWJ,1.733240008354187,40.09159851074219,770,3,U
GHT,Ghat Airport,Ghat,Libya,GHT,HLGT,25.1455993652,10.142600059500001,2296,2,N
AKF,Kufra Airport,Kufra,Libya,AKF,HLKF,24.178699493408203,23.31399917602539,1367,2,N
BEN,Benina International Airport,Benghazi,Libya,BEN,HLLB,32.096801757799994,20.2695007324,433,2,N
SEB,Sabha Airport,Sebha,Libya,SEB,HLLS,26.98699951171875,14.47249984741211,1427,2,N
TIP,Tripoli International Airport,Tripoli,Libya,TIP,HLLT,32.6635017395,13.1590003967,263,2,N
LTD,Ghadames East Airport,Ghadames,Libya,LTD,HLTD,30.15169906616211,9.715310096740723,1122,2,N
GYI,Gisenyi Airport,Gisenyi,Rwanda,GYI,HRYG,-1.6771999597549438,29.258899688720703,5082,2,U
KGL,Kigali International Airport,Kigali,Rwanda,KGL,HRYR,-1.9686299562499998,30.1394996643,4859,2,U
KME,Kamembe Airport,Kamembe,Rwanda,KME,HRZA,-2.462239980697632,28.907899856567383,5192,2,U
DOG,Dongola Airport,Dongola,Sudan,DOG,HSDN,19.153900146499996,30.430099487299998,772,3,U
ELF,El Fasher Airport,El Fasher,Sudan,ELF,HSFS,13.614899635314941,25.324600219726562,2393,3,U
KSL,Kassala Airport,Kassala,Sudan,KSL,HSKA,15.387499809265137,36.328800201416016,1671,3,U
EBD,El Obeid Airport,El Obeid,Sudan,EBD,HSOB,13.153200149536133,30.23270034790039,1927,3,U
JUB,Juba International Airport,Juba,South Sudan,JUB,HSSJ,4.87201023102,31.6011009216,1513,3,U
MAK,Malakal Airport,Malakal,Sudan,MAK,HSSM,9.55897045135498,31.65220069885254,1291,3,U
KRT,Khartoum International Airport,Khartoum,Sudan,KRT,HSSS,15.589500427246094,32.553199768066406,1265,3,U
ARK,Arusha Airport,Arusha,Tanzania,ARK,HTAR,-3.3677899837493896,36.63330078125,4550,3,U
DAR,Julius Nyerere International Airport,Dar Es Salaam,Tanzania,DAR,HTDA,-6.87810993195,39.202598571799996,182,3,U
DOD,Dodoma Airport,Dodoma,Tanzania,DOD,HTDO,-6.170440196990967,35.752601623535156,3673,3,U
IRI,Iringa Airport,Iringa,Tanzania,IRI,HTIR,-7.668630123138428,35.75210189819336,4678,3,U
JRO,Kilimanjaro International Airport,Kilimanjaro,Tanzania,JRO,HTKJ,-3.42940998077,37.0745010376,2932,3,U
LKY,Lake Manyara Airport,Lake Manyara,Tanzania,LKY,HTLM,-3.376310110092163,35.81829833984375,4150,3,N
MYW,Mtwara Airport,Mtwara,Tanzania,MYW,HTMT,-10.339099884033203,40.181800842285156,371,3,U
MWZ,Mwanza Airport,Mwanza,Tanzania,MWZ,HTMW,-2.4444899559020996,32.932701110839844,3763,3,U
PMA,Pemba Airport,Pemba,Tanzania,PMA,HTPE,-5.257259845733643,39.8114013671875,80,3,U
TGT,Tanga Airport,Tanga,Tanzania,TGT,HTTG,-5.092360019683838,39.07120132446289,129,3,U
ZNZ,Abeid Amani Karume International Airport,Zanzibar,Tanzania,ZNZ,HTZA,-6.222020149229999,39.224899292,54,3,U
EBB,Entebbe International Airport,Entebbe,Uganda,EBB,HUEN,0.042385999113321304,32.44350051879883,3782,3,U
SRT,Soroti Airport,Soroti,Uganda,SRT,HUSO,1.7276899814605713,33.622798919677734,3697,3,U
TIA,Tirana International Airport Mother Teresa,Tirana,Albania,TIA,LATI,41.4146995544,19.7206001282,126,1,E
BOJ,Burgas Airport,Bourgas,Bulgaria,BOJ,LBBG,42.56959915161133,27.515199661254883,135,2,E
GOZ,Gorna Oryahovitsa Airport,Gorna Orechovica,Bulgaria,GOZ,LBGO,43.15140151977539,25.712900161743164,285,2,E
PDV,Plovdiv International Airport,Plovdiv,Bulgaria,PDV,LBPD,42.067799,24.8508,597,2,E
SOF,Sofia Airport,Sofia,Bulgaria,SOF,LBSF,42.696693420410156,23.411436080932617,1742,2,E
VAR,Varna Airport,Varna,Bulgaria,VAR,LBWN,43.232101,27.8251,230,2,E
LCA,Larnaca International Airport,Larnaca,Cyprus,LCA,LCLK,34.875099182128906,33.624900817871094,8,2,E
PFO,Paphos International Airport,Paphos,Cyprus,PFO,LCPH,34.71799850463867,32.48569869995117,41,2,E
AKT,RAF Akrotiri,Akrotiri,Cyprus,AKT,LCRA,34.590401,32.9879,76,0,E
DBV,Dubrovnik Airport,Dubrovnik,Croatia,DBV,LDDU,42.5614013671875,18.268199920654297,527,1,E
OSI,Osijek Airport,Osijek,Croatia,OSI,LDOS,45.46269989013672,18.810199737548828,290,1,E
PUY,Pula Airport,Pula,Croatia,PUY,LDPL,44.89350128173828,13.922200202941895,274,1,E
RJK,Rijeka Airport,Rijeka,Croatia,RJK,LDRI,45.21689987182617,14.570300102233887,278,1,E
SPU,Split Airport,Split,Croatia,SPU,LDSP,43.53889846801758,16.29800033569336,79,1,E
ZAG,Zagreb Airport,Zagreb,Croatia,ZAG,LDZA,45.7429008484,16.0687999725,353,1,E
ZAD,Zemunik Airport,Zadar,Croatia,ZAD,LDZD,44.108299255371094,15.346699714660645,289,1,E
ALC,Alicante International Airport,Alicante,Spain,ALC,LEAL,38.28219985961914,-0.5581560134887695,142,1,E
LEI,Almería International Airport,Almeria,Spain,LEI,LEAM,36.84389877319336,-2.3701000213623047,70,1,E
OVD,Asturias Airport,Aviles,Spain,OVD,LEAS,43.5635986328125,-6.0346198081970215,416,1,E
ODB,Córdoba Airport,Cordoba,Spain,ODB,LEBA,37.84199905395508,-4.848879814147949,297,1,E
BIO,Bilbao Airport,Bilbao,Spain,BIO,LEBB,43.30110168457031,-2.9106099605560303,138,1,E
BCN,Barcelona International Airport,Barcelona,Spain,BCN,LEBL,41.297100067139,2.0784599781036,12,1,E
BJZ,Badajoz Airport,Badajoz,Spain,BJZ,LEBZ,38.891300201416016,-6.8213300704956055,609,1,E
LCG,A Coruña Airport,La Coruna,Spain,LCG,LECO,43.302101135253906,-8.377260208129883,326,1,E
GRO,Girona Airport,Gerona,Spain,GRO,LEGE,41.901000977,2.7605500221,468,1,E
GRX,Federico Garcia Lorca Airport,Granada,Spain,GRX,LEGR,37.18870162963867,-3.777359962463379,1860,1,E
IBZ,Ibiza Airport,Ibiza,Spain,IBZ,LEIB,38.872898101800004,1.3731199502899998,24,1,E
XRY,Jerez Airport,Jerez,Spain,XRY,LEJR,36.744598388671875,-6.060110092163086,93,1,E
MJV,San Javier Airport,Murcia,Spain,MJV,LELC,37.775001525878906,-0.8123890161514282,11,1,E
MAD,Adolfo Suárez Madrid–Barajas Airport,Madrid,Spain,MAD,LEMD,40.471926,-3.56264,1998,1,E
AGP,Málaga Airport,Malaga,Spain,AGP,LEMG,36.67490005493164,-4.499110221862793,53,1,E
MAH,Menorca Airport,Menorca,Spain,MAH,LEMH,39.86259841918945,4.218649864196777,302,1,E
OZP,Moron Air Base,Sevilla,Spain,OZP,LEMO,37.17490005493164,-5.615940093994141,285,1,E
PNA,Pamplona Airport,Pamplona,Spain,PNA,LEPP,42.77000045776367,-1.6463299989700317,1504,1,E
REU,Reus Air Base,Reus,Spain,REU,LERS,41.14739990234375,1.1671700477600098,233,1,E
SLM,Salamanca Airport,Salamanca,Spain,SLM,LESA,40.95209884643555,-5.501989841461182,2595,1,E
EAS,San Sebastian Airport,San Sebastian,Spain,EAS,LESO,43.35649871826172,-1.7906099557876587,16,1,E
SCQ,Santiago de Compostela Airport,Santiago,Spain,SCQ,LEST,42.89630126953125,-8.415140151977539,1213,1,E
LEU,Pirineus - la Seu d'Urgel Airport,Seo De Urgel,Spain,LEU,LESU,42.3386,1.40917,2625,1,E
TOJ,Torrejón Airport,Madrid,Spain,TOJ,LETO,40.496700286865234,-3.4458699226379395,2026,1,E
VLC,Valencia Airport,Valencia,Spain,VLC,LEVC,39.48929977416992,-0.4816249907016754,240,1,E
VLL,Valladolid Airport,Valladolid,Spain,VLL,LEVD,41.7061004639,-4.85194015503,2776,1,E
VIT,Vitoria/Foronda Airport,Vitoria,Spain,VIT,LEVT,42.8828010559082,-2.7244699001312256,1682,1,E
VGO,Vigo Airport,Vigo,Spain,VGO,LEVX,42.2318000793457,-8.62677001953125,856,1,E
SDR,Santander Airport,Santander,Spain,SDR,LEXJ,43.427101135253906,-3.82000994682312,16,1,E
ZAZ,Zaragoza Air Base,Zaragoza,Spain,ZAZ,LEZG,41.66619873046875,-1.0415500402450562,863,1,E
SVQ,Sevilla Airport,Sevilla,Spain,SVQ,LEZL,37.417999267578125,-5.8931097984313965,112,1,E
CQF,Calais-Dunkerque Airport,Calais,France,CQF,LFAC,50.962100982666016,1.954759955406189,12,1,E
LTQ,Le Touquet-Côte d'Opale Airport,Le Tourquet,France,LTQ,LFAT,50.517398834228516,1.6205899715423584,36,1,E
AGF,Agen-La Garenne Airport,Agen,France,AGF,LFBA,44.17470169067383,0.5905560255050659,204,1,E
BOD,Bordeaux-Mérignac Airport,Bordeaux,France,BOD,LFBD,44.828300476100004,-0.715556025505,162,1,E
EGC,Bergerac-Roumanière Airport,Bergerac,France,EGC,LFBE,44.82529830932617,0.5186110138893127,171,1,E
CNG,Cognac-Châteaubernard (BA 709) Air Base,Cognac,France,CNG,LFBG,45.65829849243164,-0.3174999952316284,102,1,E
PIS,Poitiers-Biard Airport,Poitiers,France,PIS,LFBI,46.58769989013672,0.30666598677635193,423,1,E
MCU,Montluçon-Guéret Airport,Montlucon-gueret,France,MCU,LFBK,46.222599029541016,2.363960027694702,1497,1,E
LIG,Limoges Airport,Limoges,France,LIG,LFBL,45.86280059814453,1.1794400215148926,1300,1,E
NIT,Niort-Souché Airport,Niort,France,NIT,LFBN,46.313477,-0.394529,203,1,E
TLS,Toulouse-Blagnac Airport,Toulouse,France,TLS,LFBO,43.629101,1.36382,499,1,E
PUF,Pau Pyrénées Airport,Pau,France,PUF,LFBP,43.380001068115234,-0.41861099004745483,616,1,E
LDE,Tarbes-Lourdes-Pyrénées Airport,Tarbes,France,LDE,LFBT,43.1786994934082,-0.006438999902456999,1260,1,E
ANG,Angoulême-Brie-Champniers Airport,Angouleme,France,ANG,LFBU,45.72919845581055,0.22145600616931915,436,1,E
BVE,Toul Rosières Air Base,Brive,France,BVE,LFSL,48.780001,5.980003,936,1,E
PGX,Périgueux-Bassillac Airport,Perigueux,France,PGX,LFBX,45.19810104370117,0.815555989742279,328,1,E
BIQ,Biarritz-Anglet-Bayonne Airport,Biarritz-bayonne,France,BIQ,LFBZ,43.4683333,-1.5311111,245,1,E
XAC,Arcachon-La Teste-de-Buch Airport,Arcachon,France,XAC,LFCH,44.596401,-1.11083,49,1,E
LBI,Albi-Le Séquestre Airport,Albi,France,LBI,LFCI,43.91389846801758,2.1130599975585938,564,1,E
DCM,Castres-Mazamet Airport,Castres,France,DCM,LFCK,43.55630111694336,2.289180040359497,788,1,E
RDZ,Rodez-Marcillac Airport,Rodez,France,RDZ,LFCR,44.407901763916016,2.4826700687408447,1910,1,E
RYN,Royan-Médis Airport,Royan,France,RYN,LFCY,45.62810134887695,-0.9725000262260437,72,1,E
RCO,Rochefort-Saint-Agnant (BA 721) Airport,Rochefort,France,RCO,LFDN,45.88779830932617,-0.9830560088157654,60,1,E
CMR,Colmar-Houssen Airport,Colmar,France,CMR,LFGA,48.109901428222656,7.359010219573975,628,1,E
DLE,Dole-Tavaux Airport,Dole,France,DLE,LFGJ,47.042686,5.435061,645,1,E
OBS,Aubenas-Ardèche Méridional Airport,Aubenas-vals-lanas,France,OBS,LFHO,44.5442008972,4.37218999863,923,1,E
LPY,Le Puy-Loudes Airport,Le Puy,France,LPY,LFHP,45.0806999206543,3.762890100479126,2731,1,E
XBK,Bourg-Ceyzériat Airport,Bourg,France,XBK,LFHS,46.20090103149414,5.292029857635498,857,1,E
XVF,Villefranche-Tarare Airport,Vilefrance,France,XVF,LFHV,45.919983,4.634931,1076,1,E
XMU,Moulins-Montbeugny Airport,Moulins,France,XMU,LFHY,46.53459930419922,3.423719882965088,915,1,E
ETZ,Metz-Nancy-Lorraine Airport,Metz,France,ETZ,LFJL,48.9821014404,6.25131988525,870,1,E
BIA,Bastia-Poretta Airport,Bastia,France,BIA,LFKB,42.55270004272461,9.48373031616211,26,1,E
CLY,Calvi-Sainte-Catherine Airport,Calvi,France,CLY,LFKC,42.5244444,8.7930556,209,1,E
FSC,Figari Sud-Corse Airport,Figari,France,FSC,LFKF,41.5005989074707,9.097780227661133,87,1,E
AJA,Ajaccio-Napoléon Bonaparte Airport,Ajaccio,France,AJA,LFKJ,41.92359924316406,8.8029203414917,18,1,E
SOZ,Solenzara (BA 126) Air Base,Solenzara,France,SOZ,LFKS,41.924400329589844,9.406000137329102,28,1,E
AUF,Auxerre-Branches Airport,Auxerre,France,AUF,LFLA,47.85020065307617,3.497109889984131,523,1,E
CMF,Chambéry-Savoie Airport,Chambery,France,CMF,LFLB,45.638099670410156,5.880229949951172,779,1,E
CFE,Clermont-Ferrand Auvergne Airport,Clermont-Ferrand,France,CFE,LFLC,45.7867012024,3.1691699028,1090,1,E
BOU,Bourges Airport,Bourges,France,BOU,LFLD,47.058101654052734,2.3702800273895264,529,1,E
XCD,Chalon-Champforgeuil Airport,Chalon,France,XCD,LFLH,46.82609939575195,4.817629814147949,623,1,E
QNJ,Annemasse Airport,Annemasse,France,QNJ,LFLI,46.1920013428,6.268390178680001,1620,1,E
LYS,Lyon Saint-Exupéry Airport,Lyon,France,LYS,LFLL,45.7255556,5.0811111,821,1,E
QNX,Mâcon-Charnay Airport,Macon,France,QNX,LFLM,46.295101,4.79577,728,1,E
RNE,Roanne-Renaison Airport,Roanne,France,RNE,LFLO,46.05830001831055,4.001389980316162,1106,1,E
NCY,Annecy-Haute-Savoie-Mont Blanc Airport,Annecy,France,NCY,LFLP,45.9308333,6.1063889,1521,1,E
GNB,Grenoble-Isère Airport,Grenoble,France,GNB,LFLS,45.36289978027344,5.329370021820068,1302,1,E
VAF,Valence-Chabeuil Airport,Valence,France,VAF,LFLU,44.9216,4.9699,525,1,E
VHY,Vichy-Charmeil Airport,Vichy,France,VHY,LFLV,46.169700622558594,3.4037399291992188,817,1,E
AUR,Aurillac Airport,Aurillac,France,AUR,LFLW,44.89139938354492,2.4219400882720947,2096,1,E
CHR,Châteauroux-Déols Marcel Dassault Airport,Chateauroux,France,CHR,LFLX,46.86027778,1.7211111,529,1,E
LYN,Lyon-Bron Airport,Lyon,France,LYN,LFLY,45.72719955444336,4.944270133972168,659,1,E
QXB,Aix-en-Provence (BA 114) Airport,Aix-les-milles,France,QXB,LFMA,43.5056,5.36778,367,1,E
CEQ,Cannes-Mandelieu Airport,Cannes,France,CEQ,LFMD,43.54199981689453,6.953479766845703,13,1,E
EBU,Saint-Étienne-Bouthéon Airport,St-Etienne,France,EBU,LFMH,45.54059982299805,4.296390056610107,1325,1,E
CCF,Carcassonne Airport,Carcassonne,France,CCF,LFMK,43.215999603271484,2.3063199520111084,433,1,E
MRS,Marseille Provence Airport,Marseille,France,MRS,LFML,43.439271922,5.22142410278,74,1,E
NCE,Nice-Côte d'Azur Airport,Nice,France,NCE,LFMN,43.6584014893,7.215869903560001,12,1,E
PGF,Perpignan-Rivesaltes (Llabanère) Airport,Perpignan,France,PGF,LFMP,42.74039840698242,2.8706700801849365,144,1,E
CTT,Le Castellet Airport,Le Castellet,France,CTT,LFMQ,43.252498626708984,5.785190105438232,1391,1,E
MPL,Montpellier-Méditerranée Airport,Montpellier,France,MPL,LFMT,43.57619857788086,3.96301007270813,17,1,E
BZR,Béziers-Vias Airport,Beziers,France,BZR,LFMU,43.32350158691406,3.3538999557495117,56,1,E
AVN,Avignon-Caumont Airport,Avignon,France,AVN,LFMV,43.90729904174805,4.901830196380615,124,1,E
MEN,Mende-Brenoux Airport,Mende,France,MEN,LFNB,44.50210189819336,3.532819986343384,3362,1,E
BVA,Paris Beauvais Tillé Airport,Beauvais,France,BVA,LFOB,49.45439910888672,2.1127800941467285,359,1,E
LEH,Le Havre Octeville Airport,Le Havre,France,LEH,LFOH,49.53390121459961,0.08805599808692932,313,1,E
ORE,Orléans-Bricy (BA 123) Air Base,Orleans,France,ORE,LFOJ,47.9878005981,1.7605600357100002,412,1,E
XCR,Châlons-Vatry Air Base,Chalons,France,XCR,LFOK,48.776100158691406,4.184490203857422,587,1,E
URO,Rouen Airport,Rouen,France,URO,LFOP,49.38420104980469,1.1748000383377075,512,1,E
TUF,Tours-Val-de-Loire Airport,Tours,France,TUF,LFOT,47.4322013855,0.727605998516,357,1,E
CET,Cholet Le Pontreau Airport,Cholet,France,CET,LFOU,47.08209991455078,-0.8770639896392822,443,1,E
LVA,Laval-Entrammes Airport,Laval,France,LVA,LFOV,48.03139877319336,-0.7429860234260559,330,1,E
LBG,Paris-Le Bourget Airport,Paris,France,LBG,LFPB,48.969398498535156,2.441390037536621,218,1,E
CSF,Creil Air Base,Creil,France,CSF,LFPC,49.253501892089844,2.5191400051116943,291,1,E
CDG,Charles de Gaulle International Airport,Paris,France,CDG,LFPG,49.0127983093,2.54999995232,392,1,E
TNF,Toussus-le-Noble Airport,Toussous-le-noble,France,TNF,LFPN,48.75189971923828,2.1061899662017822,538,1,E
ORY,Paris-Orly Airport,Paris,France,ORY,LFPO,48.7233333,2.3794444,291,1,E
POX,Pontoise - Cormeilles-en-Vexin Airport,Pontoise,France,POX,LFPT,49.0966667,2.0408333,325,1,E
QYR,Troyes-Barberey Airport,Troyes,France,QYR,LFQB,48.32210159301758,4.01669979095459,388,1,E
NVS,Nevers-Fourchambault Airport,Nevers,France,NVS,LFQG,47.002601623535156,3.1133298873901367,602,1,E
LIL,Lille-Lesquin Airport,Lille,France,LIL,LFQQ,50.563332,3.086886,157,1,E
BES,Brest Bretagne Airport,Brest,France,BES,LFRB,48.447898864746094,-4.418540000915527,325,1,E
CER,Cherbourg-Maupertus Airport,Cherbourg,France,CER,LFRC,49.65010070800781,-1.4702800512313843,459,1,E
DNR,Dinard-Pleurtuit-Saint-Malo Airport,Dinard,France,DNR,LFRD,48.58769989013672,-2.0799601078033447,219,1,E
GFR,Granville Airport,Granville,France,GFR,LFRF,48.88309860229492,-1.564170002937317,45,1,E
DOL,Deauville-Saint-Gatien Airport,Deauville,France,DOL,LFRG,49.3652992249,0.154305994511,479,1,E
LRT,Lorient South Brittany (Bretagne Sud) Airport,Lorient,France,LRT,LFRH,47.76060104370117,-3.440000057220459,160,1,E
EDM,La Roche-sur-Yon Airport,La Roche-sur-yon,France,EDM,LFRI,46.701900482177734,-1.3786300420761108,299,1,E
CFR,Caen-Carpiquet Airport,Caen,France,CFR,LFRK,49.173301696777344,-0.44999998807907104,256,1,E
LME,Le Mans-Arnage Airport,Le Mans,France,LME,LFRM,47.94860076904297,0.20166699588298798,194,1,E
RNS,Rennes-Saint-Jacques Airport,Rennes,France,RNS,LFRN,48.069499969499994,-1.73478996754,124,1,E
LAI,Lannion-Côte de Granit Airport,Lannion,France,LAI,LFRO,48.754398345947266,-3.4716598987579346,290,1,E
UIP,Quimper-Cornouaille Airport,Quimper,France,UIP,LFRQ,47.974998474121094,-4.167789936065674,297,1,E
NTE,Nantes Atlantique Airport,Nantes,France,NTE,LFRS,47.153198242200006,-1.61073005199,90,1,E
SBK,Saint-Brieuc-Armor Airport,St.-brieuc Armor,France,SBK,LFRT,48.5378,-2.85444,453,1,E
MXN,Morlaix-Ploujean Airport,Morlaix,France,MXN,LFRU,48.6031990051,-3.81577992439,272,1,E
VNE,Vannes-Meucon Airport,Vannes,France,VNE,LFRV,47.72330093383789,-2.718559980392456,446,1,E
SNR,Saint-Nazaire-Montoir Airport,St.-nazaire,France,SNR,LFRZ,47.3105556,-2.1566667,13,1,E
BSL,EuroAirport Basel-Mulhouse-Freiburg Airport,Mulhouse,France,BSL,LFSB,47.59,7.5291667,885,1,E
DIJ,Dijon-Bourgogne Airport,Dijon,France,DIJ,LFSD,47.268901825,5.09000015259,726,1,E
MZM,Metz-Frescaty (BA 128) Air Base,Metz,France,MZM,LFSF,49.07170104980469,6.131669998168945,629,1,E
EPL,Épinal-Mirecourt Airport,Epinal,France,EPL,LFSG,48.32500076293945,6.069980144500732,1084,1,E
ENC,Nancy-Essey Airport,Nancy,France,ENC,LFSN,48.692100524902344,6.230460166931152,751,1,E
RHE,Reims-Champagne (BA 112) Air Base,Reims,France,RHE,LFSR,49.310001,4.05,312,1,E
SXB,Strasbourg Airport,Strasbourg,France,SXB,LFST,48.538299560546875,7.628230094909668,505,1,E
TLN,Toulon-Hyères Airport,Hyeres,France,TLN,LFTH,43.0973014832,6.14602994919,7,1,E
FNI,Nîmes-Arles-Camargue Airport,Nimes,France,FNI,LFTW,43.75740051269531,4.4163498878479,309,1,E
MQC,Miquelon Airport,Miquelon,Saint Pierre and Miquelon,MQC,LFVM,47.095500946,-56.3802986145,10,-3,U
FSP,St Pierre Airport,St.-pierre,Saint Pierre and Miquelon,FSP,LFVP,46.762901306152344,-56.173099517822266,27,-3,U
PYR,Andravida Air Base,Andravida,Greece,PYR,LGAD,37.9207,21.292601,55,2,E
AGQ,Agrinion Air Base,Agrinion,Greece,AGQ,LGAG,38.602001,21.3512001,154,2,E
AXD,Dimokritos Airport,Alexandroupolis,Greece,AXD,LGAL,40.855899810791016,25.956300735473633,24,2,E
VOL,Nea Anchialos Airport,Nea Anghialos,Greece,VOL,LGBL,39.219600677490234,22.794300079345703,83,2,E
JKH,Chios Island National Airport,Chios,Greece,JKH,LGHI,38.34320068359375,26.140600204467773,15,2,E
IOA,Ioannina Airport,Ioannina,Greece,IOA,LGIO,39.6963996887207,20.822500228881836,1558,2,E
HER,Heraklion International Nikos Kazantzakis Airport,Heraklion,Greece,HER,LGIR,35.3396987915,25.180299758900002,115,2,E
KSO,Kastoria National Airport,Kastoria,Greece,KSO,LGKA,40.4463005066,21.2821998596,2167,2,E
KIT,Kithira Airport,Kithira,Greece,KIT,LGKC,36.2742996216,23.0170001984,1045,2,E
EFL,Kefallinia Airport,Keffallinia,Greece,EFL,LGKF,38.12009811401367,20.500499725341797,59,2,E
KLX,Kalamata Airport,Kalamata,Greece,KLX,LGKL,37.06829833984375,22.02549934387207,26,2,E
KGS,Kos Airport,Kos,Greece,KGS,LGKO,36.79330062866211,27.091699600219727,412,2,E
AOK,Karpathos Airport,Karpathos,Greece,AOK,LGKP,35.4213981628418,27.145999908447266,66,2,E
CFU,Ioannis Kapodistrias International Airport,Kerkyra/corfu,Greece,CFU,LGKR,39.601898193359375,19.911699295043945,6,2,E
KSJ,Kasos Airport,Kasos,Greece,KSJ,LGKS,35.4213981628,26.909999847399998,35,2,E
KVA,Alexander the Great International Airport,Kavala,Greece,KVA,LGKV,40.913299560546875,24.619199752807617,18,2,E
KZI,Filippos Airport,Kozani,Greece,KZI,LGKZ,40.28609848022461,21.84079933166504,2059,2,E
LRS,Leros Airport,Leros,Greece,LRS,LGLE,37.184898376499994,26.8003005981,39,2,E
